City_ID,City,Lat,Lng,Max Temp,Humidity,Cloudiness,Wind Speed,Country,Date
0,greenville,35.6127,-77.3663,9.52,61,0,0.89,US,1700370747
1,isafjordur,66.0755,-23.124,3.4,89,100,1.31,IS,1700371013
2,adamstown,-25.066,-130.1015,21.8,87,100,9.46,PN,1700371013
3,hotan,37.0997,79.9269,9.48,15,81,1.3,CN,1700371000
4,ulladulla,-35.35,150.4667,35.98,55,16,8.47,AU,1700370946
5,anaco,9.4389,-64.4728,24.25,84,52,4.69,VE,1700371014
6,hinton,53.4001,-117.5857,1.71,79,89,2.66,CA,1700371014
7,invercargill,-46.4,168.35,13.9,59,46,4.02,NZ,1700370754
8,mossel bay,-34.1831,22.146,15.96,71,100,0.92,ZA,1700371015
9,tiksi,71.6872,128.8694,-30.48,100,64,2.51,RU,1700371016
10,waitangi,-43.9535,-176.5597,10.46,95,100,2.68,NZ,1700371016
11,nova sintra,14.8667,-24.7167,23.26,63,93,5.59,CV,1700371016
12,tolanaro,-25.0319,46.9987,26.12,71,2,5.08,MG,1700371017
13,marrakesh,31.6315,-8.0083,14.04,54,0,1.54,MA,1700370865
14,sabzevar,36.2126,57.6819,15.4,55,5,1.31,IR,1700370827
15,aasiaat,68.7098,-52.8699,-3.35,91,100,4.3,GL,1700371017
16,port elizabeth,-33.918,25.5701,19.62,85,0,4.12,ZA,1700371017
17,east london,-33.0153,27.9116,20.52,94,100,4.12,ZA,1700370727
18,bredasdorp,-34.5322,20.0403,17.65,76,100,1.78,ZA,1700371018
19,bethel,41.3712,-73.414,3.2,72,0,0.45,US,1700371018
20,iqaluit,63.7506,-68.5145,-3.15,73,100,2.57,CA,1700371018
21,guerrero negro,27.9769,-114.0611,19.09,82,10,8.44,MX,1700371019
22,port-aux-francais,-49.35,70.2167,5.14,92,97,10.59,TF,1700371019
23,carnarvon,-24.8667,113.6333,27.93,57,2,7.39,AU,1700371019
24,yellowknife,62.456,-114.3525,-3.66,97,100,5.66,CA,1700371019
25,mahdia,35.5047,11.0622,14.97,72,37,4.13,TN,1700370863
26,fale old settlement,-9.3852,-171.2468,29.51,76,56,8.31,TK,1700371020
27,hawaiian paradise park,19.5933,-154.9731,22.73,90,100,2.57,US,1700371021
28,klyuchi,52.2667,79.1667,-0.47,66,100,9.35,RU,1700371021
29,baruun-urt,46.6806,113.2792,-4.1,84,5,3.31,MN,1700371022
30,kalajoki,64.25,23.95,-2.27,97,47,3.54,FI,1700371022
31,save,8.0425,2.486,24.63,85,70,1.6,BJ,1700371023
32,punta arenas,-53.15,-70.9167,3.06,60,0,5.66,CL,1700370953
33,urangan,-25.3,152.9,23.37,69,100,5.15,AU,1700371024
34,isfana,39.8386,69.5306,6.31,57,100,0.84,KG,1700371024
35,blackmans bay,-43.0167,147.3167,18.07,72,88,2.95,AU,1700371025
36,ushuaia,-54.8,-68.3,0.81,69,75,10.8,AR,1700371025
37,saint-pierre,-21.3393,55.4781,25.87,65,75,5.66,RE,1700370829
38,longyearbyen,78.2186,15.6401,-13.09,72,75,5.14,SJ,1700371026
39,abbeville,50.1,1.8333,13.98,88,41,8.24,FR,1700370866
40,sinabang,2.4803,96.3801,28.04,78,97,1.49,ID,1700371026
41,edinburgh of the seven seas,-37.0676,-12.3116,12.91,84,43,16.72,SH,1700371027
42,st. john's,47.5649,-52.7093,12.04,94,100,11.32,CA,1700371027
43,kerikeri,-35.2268,173.9474,20.51,89,55,0.45,NZ,1700371027
44,lerwick,60.1545,-1.1494,7.87,93,100,16.14,GB,1700371028
45,isangel,-19.55,169.2667,26.06,74,74,4.83,VU,1700371028
46,shihezi,44.3,86.0333,10.21,32,100,2.51,CN,1700371029
47,susuman,62.7833,148.1667,-27.02,99,89,0.84,RU,1700371029
48,dudinka,69.4058,86.1778,-25.77,99,55,3.4,RU,1700370842
49,motygino,58.1831,94.7592,4.32,93,100,4.47,RU,1700371030
50,macapa,0.0389,-51.0664,27.99,78,0,3.09,BR,1700370868
51,moroto,2.5345,34.6666,21.06,75,73,3.0,UG,1700371031
52,saipan,15.1355,145.701,31.39,79,75,10.29,MP,1700370942
53,burang,30.25,81.1667,3.47,22,1,2.98,CN,1700371031
54,papatowai,-46.5619,169.4708,13.07,61,22,4.23,NZ,1700371031
55,taybad,34.74,60.7756,15.3,55,0,1.73,IR,1700371032
56,thompson,55.7435,-97.8558,-13.91,92,75,1.03,CA,1700371032
57,utrik,11.2278,169.8474,27.92,77,19,6.92,MH,1700371032
58,kone,-21.0595,164.8658,27.13,63,30,3.29,NC,1700371032
59,tsiombe,-25.3,45.4833,30.18,45,1,1.24,MG,1700371033
60,bel ombre,-4.6167,55.4167,29.91,79,40,4.12,SC,1700371033
61,la junta,37.985,-103.5438,9.16,43,75,2.57,US,1700371034
62,port mathurin,-19.6833,63.4167,25.42,79,98,6.59,MU,1700371034
63,talnakh,69.4865,88.3972,-26.0,99,65,0.48,RU,1700371035
64,lihue,21.9789,-159.3672,25.58,84,75,6.17,US,1700371035
65,cidreira,-30.1811,-50.2056,18.0,79,52,5.57,BR,1700371036
66,bilibino,68.0546,166.4372,-28.71,100,98,1.73,RU,1700371036
67,tamiahua,21.2667,-97.45,21.36,88,25,0.73,MX,1700371036
68,flin flon,54.7682,-101.865,-3.3,92,33,2.92,CA,1700371036
69,kirakira,-10.4544,161.9205,29.07,75,24,4.6,SB,1700371037
70,albany,42.6001,-73.9662,1.43,78,1,0.45,US,1700371037
71,timimoun,29.2639,0.231,13.21,38,0,6.69,DZ,1700370854
72,houghton,47.1219,-88.569,4.34,79,0,5.66,US,1700371038
73,puerto natales,-51.7236,-72.4875,0.08,89,8,1.39,CL,1700371038
74,cloverdale,38.8055,-123.0172,12.54,82,62,2.68,US,1700371038
75,levuka,50.1834,-105.4011,-1.1,74,1,3.51,CA,1700371038
76,margaret river,-33.95,115.0667,22.57,52,78,6.96,AU,1700371039
77,aykhal,66.0,111.5,-22.37,99,78,2.21,RU,1700371039
78,crane,31.3974,-102.3501,15.98,71,78,7.17,US,1700371039
79,chadron,42.8294,-102.9999,-0.18,80,0,2.06,US,1700371039
80,vila velha,-20.3297,-40.2925,25.97,86,0,7.2,BR,1700371040
81,tonghae,37.5439,129.1069,11.41,62,14,7.04,KR,1700371040
82,antalaha,-14.9003,50.2788,25.58,82,73,3.97,MG,1700371040
83,afaahiti,-17.75,-149.2833,26.93,80,83,9.69,PF,1700371041
84,grytviken,-54.2811,-36.5092,1.09,98,100,1.89,GS,1700371041
85,kapuskasing,49.4169,-82.4331,-4.95,93,100,4.63,CA,1700371041
86,kodiak,57.79,-152.4072,-3.27,54,0,3.09,US,1700371041
87,morondava,-20.2833,44.2833,28.51,53,54,0.62,MG,1700371042
88,chokwe,-24.5333,32.9833,26.94,47,81,3.07,MZ,1700371042
89,chonchi,-42.6128,-73.8092,8.95,98,69,1.22,CL,1700371043
90,alice springs,-23.7,133.8833,28.75,51,78,3.6,AU,1700371043
91,college,64.8569,-147.8028,-13.82,84,100,2.06,US,1700371043
92,izmir,38.4622,27.0923,7.73,87,75,1.03,TR,1700370784
93,toliara,-23.35,43.6667,28.49,57,1,1.45,MG,1700371044
94,lupane,-18.9315,27.807,24.74,24,1,3.06,ZW,1700371044
95,tharangambadi,11.0319,79.8528,26.69,85,100,5.9,IN,1700371044
96,yangiqo'rg'on,41.1906,71.7257,11.36,49,100,2.45,UZ,1700371045
97,vilyuysk,63.7553,121.6247,-16.11,94,99,1.34,RU,1700371045
98,naze,28.3667,129.4833,17.27,59,93,4.3,JP,1700370786
99,lushun,38.8,121.2667,12.12,44,0,7.53,CN,1700371046
100,pombas,17.1503,-25.0201,22.88,67,98,4.01,CV,1700371046
101,kongolo,-5.3833,27.0,22.01,96,94,0.58,CD,1700371046
102,chos malal,-37.3781,-70.2709,10.08,58,74,3.91,AR,1700371046
103,daru,-9.0763,143.2092,29.08,66,97,4.87,PG,1700370927
104,fort mcmurray,56.7268,-111.381,2.73,87,100,1.54,CA,1700371047
105,fort-shevchenko,44.5086,50.263,10.78,60,94,10.37,KZ,1700371048
106,ancud,-41.8697,-73.8203,9.92,87,100,3.48,CL,1700371048
107,haiku-pauwela,20.9219,-156.3051,23.47,75,20,2.06,US,1700371048
108,mejit,10.2753,170.8646,28.0,78,16,7.34,MH,1700371049
109,cole harbour,44.6724,-63.4751,7.2,92,100,4.92,CA,1700370988
110,vilyuchinsk,52.9306,158.4028,1.15,99,100,3.93,RU,1700371049
111,kapa'a,22.0752,-159.319,25.99,87,75,6.17,US,1700371049
112,rota,36.6224,-6.3586,14.07,88,0,4.63,ES,1700370849
113,wanxian,30.8039,108.3897,19.08,54,6,0.95,CN,1700371050
114,constantia,44.1833,28.65,2.61,90,100,18.19,RO,1700370813
115,mount isa,-20.7333,139.5,28.87,42,59,9.77,AU,1700370814
116,hammerfest,70.6634,23.6821,-1.75,69,75,4.63,NO,1700371050
117,gisborne,-38.6533,178.0042,18.79,78,80,2.86,NZ,1700370768
118,karoi,-16.8099,29.6925,25.4,31,1,3.84,ZW,1700371051
119,okhotsk,59.3833,143.3,-10.66,76,91,8.01,RU,1700371051
120,selfoss,63.9331,-20.9971,1.55,66,85,2.95,IS,1700371051
121,jamestown,42.097,-79.2353,6.77,82,0,4.12,US,1700371052
122,badger,64.8,-147.5333,-13.86,86,100,2.06,US,1700371052
123,yinchuan,38.4681,106.2731,9.99,11,0,0.29,CN,1700371052
124,villagarzon,1.0375,-76.6267,22.84,84,80,2.72,CO,1700371052
125,ponta delgada,37.7333,-25.6667,18.99,72,40,7.2,PT,1700370789
126,san patricio,28.017,-97.5169,20.92,77,71,2.24,US,1700371053
127,opuwo,-18.0607,13.84,22.67,65,85,1.84,NA,1700371054
128,puerto ayora,-0.7393,-90.3518,20.86,96,33,1.34,EC,1700371054
129,bom jesus da lapa,-13.255,-43.4181,23.42,74,18,2.55,BR,1700371054
130,jerantut,3.936,102.3626,26.51,80,100,1.77,MY,1700371054
131,kavieng,-2.5744,150.7967,28.88,74,14,5.06,PG,1700371055
132,tarnogskiy gorodok,60.4997,43.5761,-6.23,91,99,3.58,RU,1700371055
133,tucurui,-3.7661,-49.6725,27.59,65,94,1.37,BR,1700371055
134,paramonga,-10.6667,-77.8333,19.42,83,100,3.0,PE,1700371056
135,bonthe,7.5264,-12.505,24.09,91,99,2.23,SL,1700371056
136,tazovsky,67.4667,78.7,-22.1,98,94,3.62,RU,1700371056
137,guarapari,-20.6667,-40.4975,24.94,82,13,5.81,BR,1700371056
138,udachny,66.4167,112.4,-24.51,99,39,0.58,RU,1700371057
139,vadso,70.0744,29.7487,-7.91,86,40,4.12,NO,1700371057
140,columbia falls,48.3725,-114.1815,0.01,93,100,0.0,US,1700371057
141,qamdo,31.1667,97.2333,2.37,23,0,1.87,CN,1700370945
142,paita,-5.0892,-81.1144,19.9,86,100,3.17,PE,1700371058
143,georgiyevka,43.0369,74.7114,7.02,100,75,3.0,KZ,1700371058
144,alta,69.9689,23.2717,-6.41,85,75,1.54,NO,1700371054
145,aldinga beach,-35.2793,138.4604,28.48,47,57,5.47,AU,1700370993
146,chadan,51.2833,91.5833,-8.09,92,97,0.1,RU,1700371059
147,dali,25.7,100.1833,16.1,58,59,0.42,CN,1700371059
148,buka,40.8108,69.1986,13.01,61,99,1.4,UZ,1700371060
149,fukuecho,32.6881,128.8419,16.2,48,40,2.06,JP,1700371060
150,polyarnyy,69.1989,33.4478,-11.37,96,61,3.2,RU,1700371060
151,wattegama,6.7989,81.4808,30.84,62,92,0.59,LK,1700371061
152,gaalkacyo,6.7697,47.4308,25.35,75,96,7.02,SO,1700370911
153,cobija,-11.0267,-68.7692,29.82,46,100,1.8,BO,1700371062
154,petrolia,42.8668,-82.1498,7.09,65,0,3.09,CA,1700371062
155,arraial do cabo,-22.9661,-42.0278,23.71,92,93,1.75,BR,1700371063
156,cholul,21.0167,-89.2833,24.01,93,50,0.32,MX,1700371063
157,itoman,26.1247,127.6694,23.21,53,20,5.66,JP,1700371063
158,ilulissat,69.2167,-51.1,3.01,60,75,8.23,GL,1700371064
159,tangalle,6.024,80.7911,29.16,70,92,2.14,LK,1700371064
160,port lincoln,-34.7333,135.8667,18.42,60,83,6.3,AU,1700371064
161,santana,-0.0583,-51.1817,28.1,78,0,3.09,BR,1700370868
162,ribeira grande,38.5167,-28.7,14.32,81,54,7.15,PT,1700371065
163,khandyga,62.6667,135.6,-15.36,96,100,2.02,RU,1700371065
164,popondetta,-8.7537,148.2534,32.16,48,89,3.32,PG,1700371065
165,kralendijk,12.15,-68.2667,27.99,89,100,5.14,BQ,1700371066
166,wailua homesteads,22.0669,-159.378,25.24,87,75,6.17,US,1700371067
167,atafu village,-8.5421,-172.5159,29.79,76,89,7.77,TK,1700371068
168,hamilton,39.1834,-84.5333,4.98,78,0,0.89,US,1700370845
169,greymouth,-42.4667,171.2,15.28,72,16,4.78,NZ,1700370972
170,kayyerkan,69.3786,87.7439,-25.95,75,77,1.6,RU,1700371069
171,kiunga,-6.1219,141.2906,29.05,77,99,1.55,PG,1700371069
172,luderitz,-26.6481,15.1594,18.07,63,0,3.48,NA,1700371070
173,jiamusi,46.8333,130.35,-2.06,86,100,4.46,CN,1700371071
174,ngaoundere,7.3167,13.5833,17.91,47,96,1.72,CM,1700371071
175,mwene-ditu,-7.0,23.45,18.82,98,100,1.27,CD,1700371071
176,broome,42.2506,-75.833,2.04,80,20,3.09,US,1700371072
177,ust-nera,64.5667,143.2,-25.26,100,97,0.1,RU,1700371072
178,tura,25.5198,90.2201,26.23,61,4,0.75,IN,1700371072
179,anadyr,64.75,177.4833,-14.72,85,40,5.0,RU,1700370910
180,grand falls-windsor,48.9332,-55.6649,11.95,93,100,4.92,CA,1700371073
181,laascaanood,8.4774,47.3597,23.09,74,100,6.51,SO,1700371073
182,uturoa,-16.7333,-151.4333,26.0,79,57,10.05,PF,1700371073
183,hermanus,-34.4187,19.2345,17.66,76,100,1.85,ZA,1700371074
184,francisco beltrao,-26.0811,-53.055,17.6,97,54,1.83,BR,1700371074
185,malinyi,-8.9333,36.1333,25.62,79,97,0.33,TZ,1700371074
186,kuqa,41.7278,82.9364,6.84,32,100,0.72,CN,1700370851
187,santa luzia,-19.7697,-43.8514,25.5,69,0,0.0,BR,1700371075
188,mogocha,53.7333,119.7667,-2.92,57,10,1.06,RU,1700371075
189,tuncurry,-32.1667,152.5,22.35,71,70,2.68,AU,1700371076
190,kingston,17.997,-76.7936,27.53,83,20,3.09,JM,1700370852
191,weno,7.4515,151.8468,29.97,89,75,2.06,FM,1700371076
192,murzuq,25.9155,13.9184,15.19,44,0,3.3,LY,1700371077
193,monrovia,6.3005,-10.7969,22.87,87,74,1.1,LR,1700370852
194,caleta de carquin,-11.0925,-77.6267,19.48,82,100,3.74,PE,1700371077
195,lompoc,34.6391,-120.4579,16.23,87,100,3.6,US,1700371078
196,mbanza-ngungu,-5.25,14.8667,20.5,98,100,0.23,CD,1700371078
197,tahoua,14.8888,5.2692,22.85,20,94,4.95,NE,1700371078
198,tingi,-11.3,35.0333,22.7,67,23,3.3,TZ,1700371078
199,nuuk,64.1835,-51.7216,0.34,80,100,16.98,GL,1700371079
200,swan hill,-35.3378,143.5544,33.34,9,27,1.7,AU,1700371079
201,turpan,42.9333,89.1667,9.41,33,15,1.42,CN,1700371079
202,pokhara,28.2333,83.9833,21.74,54,37,2.31,NP,1700371080
203,west island,-12.1568,96.8225,28.99,65,40,5.66,CC,1700371071
204,petropavlovsk-kamchatsky,53.0452,158.6483,0.33,98,100,5.81,RU,1700371080
205,freetown,8.484,-13.2299,26.13,82,70,1.43,SL,1700370809
206,talcahuano,-36.7167,-73.1167,8.82,93,0,0.0,CL,1700370884
207,kerrville,30.0474,-99.1403,15.51,87,100,1.54,US,1700371081
208,avarua,-21.2078,-159.775,24.03,69,100,6.17,CK,1700370861
209,lata,40.1629,-8.3327,14.95,92,33,1.07,PT,1700371081
210,bandarbeyla,9.4942,50.8122,27.63,70,79,5.82,SO,1700371081
211,barcelos,41.5388,-8.6151,14.08,93,3,1.92,PT,1700370680
212,sisimiut,66.9395,-53.6735,-0.74,82,97,11.05,GL,1700371082
213,chongjin,41.7956,129.7758,8.26,53,5,1.85,KP,1700371082
214,igarka,67.4667,86.5833,-18.76,95,100,4.33,RU,1700371082
215,mao,39.8885,4.2658,16.31,94,40,2.57,ES,1700371083
216,freeport,40.6576,-73.5832,6.66,60,0,4.63,US,1700371083
217,qaqortoq,60.7167,-46.0333,-0.51,99,100,1.7,GL,1700371084
218,khadki,18.5667,73.8667,28.21,46,22,3.94,IN,1700371084
219,arkhangel'sk,64.5401,40.5433,-4.93,92,83,4.27,RU,1700371084
220,bondo,3.8146,23.6866,21.83,99,100,0.73,CD,1700371084
221,shenjiamen,29.9576,122.298,14.69,37,0,2.91,CN,1700371085
222,praia da vitoria,38.7333,-27.0667,15.98,88,40,5.89,PT,1700371085
223,vielha,42.6846,0.7726,7.39,50,29,1.4,ES,1700371085
224,kaoma,-14.7833,24.8,23.23,28,52,3.01,ZM,1700371086
225,isiro,2.7739,27.616,20.3,99,100,0.85,CD,1700371086
226,khash,28.2211,61.2158,15.94,57,0,0.56,IR,1700371086
227,oliver,49.1831,-119.5524,1.95,80,91,2.06,CA,1700371086
228,kimbe,-5.5502,150.1429,29.44,71,38,1.09,PG,1700371087
229,port saint john's,-31.6229,29.5448,22.27,79,68,2.37,ZA,1700371087
230,lazaro cardenas,17.9583,-102.2,26.09,88,11,1.49,MX,1700371087
231,eldoret,0.5204,35.2699,15.97,83,76,4.11,KE,1700371088
232,keflavik,64.0049,-22.5624,0.24,86,75,2.57,IS,1700371088
233,al bawiti,28.3492,28.8659,17.15,72,0,5.43,EG,1700371088
234,la passe,45.5549,-0.8967,15.55,92,49,5.33,FR,1700371088
235,tamanrasset,22.785,5.5228,13.95,26,0,4.12,DZ,1700371047
236,iskateley,67.6803,53.1512,-14.99,97,57,3.58,RU,1700371089
237,georgetown,5.4112,100.3354,31.97,62,20,4.63,MY,1700370936
238,minas de marcona,-15.2119,-75.1103,14.12,85,79,4.13,PE,1700371090
239,taoudenni,22.6783,-3.9836,21.62,22,0,3.86,ML,1700371090
240,riohacha,11.5444,-72.9072,25.46,91,100,3.0,CO,1700371090
241,san antonio de pale,-1.4014,5.6325,25.01,92,100,4.67,GQ,1700371090
242,nashville,36.1659,-86.7844,8.17,67,0,1.54,US,1700371091
243,kremenets,50.0969,25.7246,-0.19,82,100,2.58,UA,1700371091
244,khoyniki,51.8911,29.9552,-3.31,82,75,1.77,BY,1700371091
245,holualoa,19.6228,-155.9522,23.91,75,40,3.09,US,1700371091
246,recani,31.2846,-4.2688,14.34,29,0,1.04,MA,1700371092
247,novodvinsk,64.4165,40.8122,-5.12,92,77,3.85,RU,1700370989
248,piet retief,-27.0071,30.8132,21.09,65,96,0.57,ZA,1700371092
249,el porvenir,13.7617,-87.3458,21.63,88,26,2.79,HN,1700371092
250,olonkinbyen,70.9221,-8.7187,0.07,97,100,2.2,SJ,1700371092
251,madimba,-10.4,40.3333,28.56,74,59,3.58,TZ,1700371093
252,mugia,43.1041,-9.2179,16.76,95,99,1.91,ES,1700371093
253,ola,59.5833,151.2833,-4.99,74,100,5.49,RU,1700371093
254,bosaso,11.2842,49.1816,28.37,69,36,2.29,SO,1700371093
255,al wajh,26.2455,36.4525,21.97,60,0,2.06,SA,1700371073
256,kwang binh,17.4833,106.6,22.54,71,96,5.25,VN,1700371094
257,ashburton,-37.8626,145.0794,26.58,62,66,1.79,AU,1700371095
258,hithadhoo,-0.6,73.0833,27.94,78,16,5.64,MV,1700371095
259,arteche,12.2645,125.4048,26.99,89,100,5.69,PH,1700371095
260,yorkton,51.2167,-102.4677,1.91,80,20,5.14,CA,1700371052
261,gualaceo,-2.9,-78.7833,13.57,92,98,0.92,EC,1700370967
262,mweka,-4.85,21.5667,21.13,100,100,0.74,CD,1700371096
263,eureka,40.8021,-124.1637,12.34,88,54,2.68,US,1700371096
264,pionerskiy,54.9508,20.2275,0.91,81,49,5.91,RU,1700371096
265,ketchikan,55.3422,-131.6461,4.99,93,100,6.17,US,1700371097
266,spring creek,40.7266,-115.5859,5.17,90,97,4.05,US,1700371097
267,trelew,-43.249,-65.3051,12.01,57,53,9.77,AR,1700371097
268,okakarara,-20.5833,17.4333,22.43,54,98,1.87,NA,1700371097
269,xilin hot,43.9667,116.0333,0.86,61,2,2.45,CN,1700371086
270,usogorsk,63.4106,48.6872,-8.52,94,100,3.9,RU,1700371098
271,callao,-12.0667,-77.15,19.29,82,0,3.09,PE,1700370946
272,kovdor,67.5662,30.4758,-18.72,99,44,1.5,RU,1700371098
273,linxia chengguanzhen,35.6003,103.2064,10.4,17,0,1.07,CN,1700371099
274,kerman,30.2832,57.0788,10.92,50,0,2.06,IR,1700371099
275,yeppoon,-23.1333,150.7333,22.88,92,100,6.18,AU,1700371099
276,sitka,57.0531,-135.33,2.94,81,100,4.12,US,1700371099
277,kalifornsky,60.4183,-151.29,-20.83,84,0,0.0,US,1700371100
278,ghat,24.9647,10.1728,14.9,37,0,0.89,LY,1700371100
279,harper,4.375,-7.7169,25.54,86,92,2.02,LR,1700370763
280,muynoq,43.7683,59.0214,8.68,63,81,3.49,UZ,1700371101
281,karratha,-20.7377,116.8463,35.55,32,39,5.77,AU,1700370853
282,vorgashor,67.5833,63.95,-28.61,100,96,1.23,RU,1700371073
283,barguzin,53.6167,109.6167,-2.97,89,95,2.85,RU,1700371102
284,flying fish cove,-10.4217,105.6791,27.82,74,100,5.66,CX,1700371095
285,east end,34.5507,-92.341,10.98,76,0,1.0,US,1700371102
286,jayapura,-2.5333,140.7,33.66,74,67,5.14,ID,1700371103
287,show low,34.2542,-110.0298,6.71,94,0,3.6,US,1700371103
288,rio san juan,19.6439,-70.0763,23.98,85,99,5.34,DO,1700371103
289,shubarshi,48.5872,57.1869,-1.03,60,6,3.05,KZ,1700371103
290,port alfred,-33.5906,26.891,18.43,97,100,3.04,ZA,1700371104
291,lebu,-37.6167,-73.65,9.56,89,37,1.8,CL,1700371104
292,apomu,7.3333,4.1833,25.92,95,95,0.69,NG,1700371104
293,tezu,27.9167,96.1667,27.33,42,3,1.56,IN,1700370907
294,kununurra,-15.7667,128.7333,39.99,29,40,2.57,AU,1700371105
295,severo-yeniseyskiy,60.3725,93.0408,-3.57,94,100,2.68,RU,1700371105
296,jiuquan,39.7432,98.5174,9.54,11,5,1.65,CN,1700370920
297,horta,38.5333,-28.6333,13.9,81,56,7.15,PT,1700371106
298,namibe,-15.1961,12.1522,24.9,73,99,4.39,AO,1700371068
299,bayramaly,37.6185,62.1671,13.86,45,7,6.3,TM,1700371106
300,fort bragg,35.139,-79.006,13.79,66,0,2.06,US,1700371107
301,ostersund,63.1792,14.6357,-12.75,92,100,1.03,SE,1700370829
302,touros,-5.1989,-35.4608,25.8,81,20,4.93,BR,1700371107
303,gorontalo,0.5412,123.0595,31.72,61,82,2.35,ID,1700370798
304,adelaide,-34.9333,138.6,28.29,41,0,7.72,AU,1700371104
305,koungheul,13.9833,-14.8,24.85,46,47,2.95,SN,1700371108
306,acarau,-2.8856,-40.12,26.18,83,45,5.12,BR,1700371109
307,mount pearl,47.5166,-52.7813,11.58,94,100,11.32,CA,1700371109
308,contai,21.7786,87.7536,27.4,56,60,3.79,IN,1700370910
309,iowa park,33.9515,-98.6687,13.3,84,0,4.12,US,1700371109
310,jumla,29.2747,82.1838,17.07,21,86,2.18,NP,1700371110
311,stanley,54.868,-1.6985,11.55,90,40,3.6,GB,1700370847
312,alappuzha,9.49,76.3264,30.56,77,100,0.92,IN,1700371060
313,sabha,27.0377,14.4283,14.1,51,0,4.02,LY,1700371110
314,acapulco de juarez,16.8634,-99.8901,28.9,79,20,1.54,MX,1700371111
315,launceston,-41.45,147.1667,23.8,33,87,8.75,AU,1700371026
316,tralee,52.2704,-9.7026,12.23,93,100,8.23,IE,1700371111
317,kingscliff,-28.2667,153.5667,24.85,64,84,5.14,AU,1700371111
318,rongelap,11.1635,166.8941,28.09,78,28,7.08,MH,1700371112
319,zalingei,12.9096,23.4741,20.7,24,100,2.35,SD,1700371112
320,lujan,-34.5703,-59.105,15.53,72,68,0.89,AR,1700371112
321,dakhla,23.6848,-15.958,21.8,46,0,4.38,EH,1700371060
322,howard springs,-12.497,131.047,36.1,53,93,5.32,AU,1700371113
323,cabo san lucas,22.8909,-109.9124,27.09,82,1,2.28,MX,1700371113
324,ambodifotatra,-16.9833,49.85,25.77,74,53,4.77,MG,1700371113
325,arvi,20.9833,78.2333,28.08,41,4,3.01,IN,1700371114
326,yarega,63.4354,53.5765,-10.07,92,99,3.86,RU,1700371114
327,caucasia,7.9865,-75.1935,23.67,98,100,1.25,CO,1700371114
328,dom pedro,-4.4833,-44.45,24.3,84,93,1.21,BR,1700371115
329,port macquarie,-31.4333,152.9167,23.83,62,35,6.98,AU,1700371104
330,trairi,-3.2778,-39.2689,26.12,84,46,3.78,BR,1700371115
331,fort st. john,56.2499,-120.8529,3.94,75,75,2.57,CA,1700371115
332,saint-joseph,-21.3667,55.6167,26.37,60,0,3.42,RE,1700371038
333,dodge city,37.7528,-100.0171,14.03,65,0,6.69,US,1700371116
334,estes park,40.3772,-105.5217,6.12,85,100,0.89,US,1700371116
335,lapeer,43.0514,-83.3188,4.3,75,0,0.0,US,1700371116
336,tofol,5.3248,163.0078,29.88,74,75,3.09,FM,1700371117
337,itamaraca,-7.7478,-34.8256,27.03,83,1,3.63,BR,1700371117
338,amos,48.5669,-78.1162,-1.7,90,98,3.37,CA,1700371117
339,miles city,46.4083,-105.8406,4.54,75,0,0.0,US,1700371117
340,hopelchen,19.7667,-89.85,19.8,92,16,0.45,MX,1700371118
341,monterey,36.2505,-121.2516,12.88,89,22,1.99,US,1700371118
342,chancay,-11.5714,-77.2672,18.75,84,100,2.55,PE,1700371067
343,zhalantun,48.0,122.7167,-0.27,73,3,5.59,CN,1700371119
344,cuatro cienegas de carranza,26.9833,-102.0833,19.0,77,9,1.85,MX,1700371119
345,la condamine,43.7344,7.4202,13.82,65,0,5.66,MC,1700371119
346,chui,-33.6971,-53.4616,12.19,56,99,2.71,UY,1700371119
347,guanica,17.9716,-66.908,28.4,71,100,5.06,PR,1700371120
348,villa gesell,-37.2639,-56.973,10.03,59,0,3.9,AR,1700370871
349,keetmanshoop,-26.5833,18.1333,23.66,19,75,3.03,NA,1700371120
350,tual,-5.6667,132.75,28.45,70,39,2.45,ID,1700371120
351,kilinochchi,9.3961,80.3982,26.27,87,99,2.22,LK,1700371121
352,la'ie,21.6477,-157.9253,24.98,72,99,1.75,US,1700371121
353,nova xavantina,-14.6667,-52.35,27.43,53,82,0.71,BR,1700371121
354,inirida,3.8653,-67.9239,25.32,93,98,1.43,CO,1700371122
355,peace river,56.2501,-117.286,3.17,93,75,1.54,CA,1700371122
356,antonio enes,-16.2325,39.9086,28.73,61,27,2.99,MZ,1700371122
357,sucua,-2.4667,-78.1667,19.99,94,70,1.92,EC,1700371122
358,kachug,53.9606,105.8817,0.03,81,100,1.79,RU,1700371122
359,yarmouth,41.7057,-70.2286,5.54,76,0,9.39,US,1700371123
360,champerico,14.3,-91.9167,26.22,83,20,0.79,GT,1700371123
361,guaranda,-1.6,-79.0,11.15,87,64,0.94,EC,1700371124
362,enewetak,11.3474,162.3373,28.24,78,30,6.98,MH,1700371125
363,boguchany,58.3814,97.4531,7.7,78,100,7.15,RU,1700371125
364,tefe,-3.3542,-64.7114,26.11,74,41,0.43,BR,1700371125
365,erenhot,43.6475,111.9767,4.75,30,1,3.34,CN,1700371126
366,vanimo,-2.6741,141.3028,29.86,67,76,4.68,PG,1700371126
367,vozhega,60.4725,40.2213,-7.5,92,94,2.8,RU,1700371126
368,cabedelo,-6.9811,-34.8339,26.37,83,0,4.44,BR,1700371127
369,colonia,50.9333,6.95,13.36,86,100,5.14,DE,1700371127
370,umba,66.6871,34.3429,-11.42,94,62,1.9,RU,1700371127
371,chinsali,-10.5414,32.0816,23.3,56,56,1.92,ZM,1700371127
372,bengkulu,-3.8004,102.2655,27.17,83,100,3.95,ID,1700370843
373,whitby,54.4877,-0.615,11.04,87,87,1.34,GB,1700371128
374,karema,-6.8205,30.4389,24.86,66,30,3.08,TZ,1700371128
375,tionk essil,12.7856,-16.5217,27.98,78,33,2.49,SN,1700371128
376,mandan,46.8267,-100.8896,6.64,77,0,3.09,US,1700370930
377,conception bay south,47.4999,-52.9981,11.91,93,100,10.95,CA,1700371129
378,el calafate,-50.3408,-72.2768,3.96,66,1,3.94,AR,1700371129
379,saudarkrokur,65.7461,-19.6394,-0.36,78,99,2.65,IS,1700371129
380,antri,26.0567,78.2144,24.16,36,0,2.54,IN,1700371129
381,afif,23.9065,42.9172,21.54,56,61,7.59,SA,1700371130
382,port loko,8.7667,-12.7833,23.6,95,94,0.43,SL,1700371130
383,garachico,28.7781,-17.7646,21.38,88,0,3.6,ES,1700371130
384,sikonge,-5.6333,32.7667,23.41,54,79,4.96,TZ,1700371130
385,aswan,24.0934,32.907,19.51,55,36,3.47,EG,1700371131
386,rosetta,31.4044,30.4164,20.94,62,63,11.01,EG,1700371131
387,astrakhan,46.3497,48.0408,5.93,100,100,8.94,RU,1700371131
388,kodinar,20.7903,70.7031,29.2,39,0,3.02,IN,1700371131
389,chifeng,42.2683,118.9636,6.31,46,2,5.02,CN,1700370936
390,yelizovo,53.1873,158.3805,1.08,100,100,2.0,RU,1700370972
391,mikuni,36.2171,136.1519,12.95,68,93,7.04,JP,1700371132
392,campestre,-21.7111,-46.2464,21.44,81,100,0.49,BR,1700371132
393,shubarkuduk,49.1447,56.4872,-1.77,55,0,3.03,KZ,1700371132
394,miracema do tocantins,-9.5618,-48.3967,26.96,64,77,0.46,BR,1700371132
395,pangody,65.85,74.4859,-20.77,98,96,4.12,RU,1700371133
396,colchani,-20.3,-66.9333,8.13,18,0,3.36,BO,1700371134
397,sitia,35.2,26.0986,13.88,60,96,15.05,GR,1700371134
398,krivosheino,57.3431,83.9261,-5.12,86,100,8.99,RU,1700371135
399,new norfolk,-42.7826,147.0587,18.72,50,93,1.52,AU,1700371135
400,heyuan,23.7333,114.6833,23.21,30,67,0.97,CN,1700371136
401,salalah,17.0151,54.0924,28.05,69,20,1.03,OM,1700370998
402,axim,4.8699,-2.2405,25.78,86,26,2.8,GH,1700370983
403,pariaman,-0.619,100.12,29.03,76,100,2.33,ID,1700371136
404,nemuro,43.3236,145.575,9.07,67,63,10.03,JP,1700371010
405,nova vicosa,-17.8919,-39.3719,24.97,80,2,6.91,BR,1700371137
406,sinsang-ni,39.6503,127.4058,11.58,47,10,6.36,KP,1700371137
407,gadzhiyevo,69.2551,33.3362,-11.57,97,73,3.2,RU,1700371137
408,oranjemund,-28.55,16.4333,17.1,73,9,1.99,NA,1700371137
409,presque isle,46.6811,-68.0159,-2.5,88,0,3.58,US,1700371138
410,constitucion,-35.3333,-72.4167,10.62,82,76,3.72,CL,1700371138
411,beroroha,-21.6667,45.1667,31.89,40,1,1.83,MG,1700371138
412,howrah,22.5892,88.3103,27.0,69,40,3.6,IN,1700371046
413,whitehorse,60.7161,-135.0538,-12.57,55,100,4.63,CA,1700371138
414,porto-vecchio,41.591,9.2795,15.81,63,0,8.23,FR,1700371139
415,kindu,-2.95,25.95,22.09,99,100,0.32,CD,1700371139
416,bhattarai danda,27.8828,83.9314,25.09,52,8,0.96,NP,1700371139
417,geraldton,-28.7667,114.6,32.23,31,0,9.77,AU,1700370974
418,shitanjing,39.2342,106.3439,10.74,8,0,1.27,CN,1700371140
419,smidovich,48.6,133.8167,-3.59,96,100,4.4,RU,1700371141
420,kabansk,52.0486,106.6528,1.72,67,71,3.06,RU,1700371142
421,tadmur,34.5608,38.2805,15.79,80,92,3.75,SY,1700371142
422,santa elena de uairen,4.6167,-61.1333,20.42,85,53,1.51,VE,1700371143
423,urcos,-13.6861,-71.6228,13.94,87,100,1.76,PE,1700371143
424,portland,45.5234,-122.6762,8.12,94,100,3.6,US,1700371144
425,krasnoufimsk,56.6059,57.7669,-7.13,72,45,4.36,RU,1700370938
426,minot air force base,48.4209,-101.3391,0.1,80,0,2.57,US,1700371144
427,anaconda,46.1285,-112.9423,-0.45,73,68,2.43,US,1700371145
428,palmer,42.1584,-72.3287,2.86,70,0,2.21,US,1700371145
429,as sulayyil,20.4607,45.5779,21.14,56,74,6.07,SA,1700371058
430,xilitla,21.3333,-98.9667,18.39,92,9,1.34,MX,1700371145
431,altay,47.8667,88.1167,3.41,94,100,1.45,CN,1700371001
432,tateyama,34.9833,139.8667,15.71,57,30,2.8,JP,1700371146
433,kahror pakka,29.6238,71.9167,24.89,29,1,1.78,PK,1700371146
434,tomatlan,19.9333,-105.25,23.33,96,34,0.62,MX,1700371147
435,andergrove,-21.0833,149.1833,30.36,65,8,4.95,AU,1700371147
436,east tamworth,-31.0894,150.9436,30.77,22,54,2.06,AU,1700371147
437,varto,39.1732,41.4559,7.79,92,100,6.18,TR,1700371147
438,male,4.1748,73.5089,29.97,79,75,3.6,MV,1700371147
439,zouerate,22.7187,-12.4521,19.68,20,0,3.73,MR,1700371080
440,tindouf,27.6711,-8.1474,16.09,23,2,3.33,DZ,1700371079
441,trincomalee,8.5711,81.2335,26.55,85,98,3.67,LK,1700371148
442,seydi,39.4816,62.9137,13.25,40,43,6.26,TM,1700371149
443,mournies,35.4764,24.0092,13.79,67,75,5.14,GR,1700371149
444,coquimbo,-29.9533,-71.3436,13.85,94,0,0.51,CL,1700370921
445,seven pagodas,12.6264,80.1722,30.59,67,100,6.78,IN,1700371150
446,katsuura,35.1333,140.3,16.86,59,21,2.61,JP,1700370997
447,dhidhdhoo,6.8833,73.1,27.64,78,95,1.98,MV,1700370903
448,mishelevka,52.8575,103.1719,2.3,82,81,4.34,RU,1700371151
449,bamboo flat,11.7,92.7167,30.05,74,40,4.63,IN,1700371151
450,jeju city,33.5097,126.5219,15.96,51,20,5.66,KR,1700371126
451,barah,13.7,30.3667,21.52,30,100,3.9,SD,1700370553
452,halvad,23.0167,71.1833,27.42,32,0,3.37,IN,1700371151
453,prado,-17.3411,-39.2208,24.54,79,5,5.95,BR,1700371152
454,sao gabriel da cachoeira,-0.1303,-67.0892,24.11,93,92,0.85,BR,1700371152
455,yen vinh,18.6667,105.6667,22.82,60,16,3.41,VN,1700371152
456,pagar alam,-4.0167,103.2667,27.95,68,100,1.43,ID,1700371152
457,xunchang,28.4543,104.715,17.35,63,36,1.18,CN,1700371095
458,telfs,47.3,11.0667,11.69,100,100,1.88,AT,1700371153
459,kavaratti,10.5669,72.642,28.71,70,87,2.11,IN,1700371153
460,kourou,5.1552,-52.6478,26.03,91,18,2.86,GF,1700371153
461,izumo,35.3667,132.7667,14.65,63,31,8.17,JP,1700370651
462,walvis bay,-22.9575,14.5053,17.27,74,0,3.04,NA,1700371154
463,remire-montjoly,4.9167,-52.2667,26.02,94,75,1.03,GF,1700371155
464,corner brook,48.9667,-57.9484,13.09,81,100,11.75,CA,1700371155
465,pariyapuram,10.9561,76.1916,29.16,62,100,0.78,IN,1700371156
466,koton-karfe,8.1,6.8,24.68,59,93,0.44,NG,1700371156
467,new plymouth,-39.0667,174.0833,15.17,94,100,4.21,NZ,1700371071
468,vernon,50.2581,-119.2691,1.74,85,69,1.54,CA,1700371134
469,bousso,10.4795,16.7117,22.78,20,90,2.62,TD,1700371157
470,farafangana,-22.8167,47.8333,24.0,85,99,4.1,MG,1700371158
471,mokopane,-24.1944,29.0097,23.12,56,90,1.68,ZA,1700371120
472,siwa oasis,29.2041,25.5195,17.12,79,0,5.58,EG,1700371158
473,balkanabat,39.5108,54.3671,17.33,43,0,5.2,TM,1700371158
474,puerto armuelles,8.2833,-82.8667,23.94,96,100,1.34,PA,1700371159
475,puerto colombia,10.9878,-74.9547,26.05,92,100,5.48,CO,1700371159
476,todiresti,47.3167,26.8333,-1.96,90,27,5.32,RO,1700371160
477,ulety,51.3572,112.4849,-0.2,68,45,1.38,RU,1700371160
478,borba,-4.3878,-59.5939,27.84,64,87,0.85,BR,1700371160
479,hirara,24.8,125.2833,23.92,60,40,7.72,JP,1700371161
480,seaside,36.6111,-121.8516,16.19,91,18,3.58,US,1700371158
481,saint-philippe,-21.3585,55.7679,24.77,63,0,3.48,RE,1700371161
482,zaozersk,69.4005,32.4476,-13.13,98,70,2.79,RU,1700371162
483,ilza,51.1631,21.2398,-0.12,87,100,1.94,PL,1700371162
484,zernograd,46.8452,40.3083,5.07,76,100,10.07,RU,1700371163
485,jinchang,38.4953,102.1739,11.87,10,0,1.52,CN,1700371163
486,papantla de olarte,20.45,-97.3167,19.35,94,10,0.63,MX,1700370881
487,reggane,26.7158,0.1714,19.39,28,0,4.92,DZ,1700371076
488,inhambane,-23.865,35.3833,25.27,69,41,3.55,MZ,1700371164
489,big bear city,34.2611,-116.845,5.64,87,100,3.09,US,1700371164
490,labytnangi,66.6572,66.4183,-25.5,95,49,1.85,RU,1700370941
491,mahriz,31.5917,54.4318,12.28,32,0,2.02,IR,1700371164
492,kolonia town,6.964,158.206,30.0,79,20,2.57,FM,1700371164
493,viseu,40.661,-7.9097,13.18,91,20,1.51,PT,1700371165
494,mahenge,-8.6833,36.7167,21.29,80,87,1.07,TZ,1700371165
495,sandnessjoen,66.0217,12.6316,-5.71,87,99,5.33,NO,1700371165
496,centerville,39.6284,-84.1594,3.92,66,0,2.06,US,1700371166
497,mahilyow,53.9139,30.3364,-2.94,68,100,3.0,BY,1700371166
498,mar del plata,-38.0023,-57.5575,11.08,70,0,4.02,AR,1700370880
499,deoli,25.75,75.3833,24.48,33,0,2.83,IN,1700371028
500,grand-bassam,5.2118,-3.7388,24.98,85,75,2.9,CI,1700371167
501,mahanje,-9.9333,35.3333,23.18,71,88,1.4,TZ,1700371167
502,hovd,48.0056,91.6419,1.46,66,56,0.94,MN,1700371167
503,puerto baquerizo moreno,-0.9,-89.6,22.25,83,15,3.32,EC,1700371167
504,makarska,43.2969,17.0178,6.33,58,1,2.56,HR,1700371167
505,ban chang,12.7254,101.0553,29.77,48,56,4.63,TH,1700370920
506,natal,-5.795,-35.2094,26.36,83,40,3.09,BR,1700371168
507,fortuna,40.5982,-124.1573,12.19,94,75,0.89,US,1700371168
508,puerto ayacucho,5.6639,-67.6236,24.69,91,97,1.81,VE,1700371168
509,nyrob,60.733,56.7202,-8.54,94,100,2.86,RU,1700371169
510,sao joao da barra,-21.6403,-41.0511,23.77,88,28,4.5,BR,1700371169
511,xining,36.6167,101.7667,7.22,18,0,0.39,CN,1700371169
512,tipasa,36.5897,2.4475,17.95,54,3,2.07,DZ,1700370984
513,baykal'sk,51.5058,104.1469,5.61,82,50,1.96,RU,1700371066
514,conde,-7.2597,-34.9075,25.7,83,40,2.06,BR,1700371170
515,al hasakah,36.5024,40.7477,16.9,52,91,11.97,SY,1700371163
516,torrington,41.8007,-73.1212,2.38,76,0,0.45,US,1700370725
517,weirton heights,40.4084,-80.5392,4.13,79,0,0.45,US,1700371171
518,san pedro,14.35,121.0167,31.57,65,40,3.6,PH,1700370982
519,tucuma,-0.1833,-50.05,25.45,90,93,3.56,BR,1700371154
520,hasaki,35.7333,140.8333,19.22,41,3,3.36,JP,1700371038
521,revelstoke,50.9832,-118.2023,0.01,100,100,1.03,CA,1700371172
522,staryye ozinki,51.1786,49.6769,-4.59,62,0,3.57,RU,1700371172
523,ugoofaaru,5.6667,73.0,28.48,72,99,2.61,MV,1700371149
524,buncrana,55.1333,-7.45,10.9,92,100,4.73,IE,1700371173
525,alexandria,31.2156,29.9553,20.92,61,63,10.68,EG,1700371173
526,banda aceh,5.5577,95.3222,29.45,71,87,5.03,ID,1700371173
527,tekeli,44.83,78.8239,5.86,61,100,3.1,KZ,1700371173
528,taupo,-38.6833,176.0833,14.49,92,100,1.71,NZ,1700370883
529,kharan,28.5833,65.4167,21.88,32,0,1.02,PK,1700371174
530,rundu,-17.9333,19.7667,25.6,37,100,1.77,NA,1700370949
531,dunedin,-45.8742,170.5036,12.67,66,94,0.89,NZ,1700371175
532,paya,18.25,-70.3,25.14,90,100,2.5,DO,1700371176
533,marsa alam,25.0757,34.8918,23.7,46,1,3.77,EG,1700370928
534,al bayda,32.7627,21.7551,12.53,60,72,12.45,LY,1700371176
535,cassilandia,-19.1133,-51.7342,25.67,59,100,2.12,BR,1700371115
536,aitape,-3.1374,142.3475,29.57,72,91,4.97,PG,1700371177
537,mariehamn,60.0973,19.9348,-1.08,74,100,2.57,AX,1700371177
538,tahe,52.3333,124.7333,-0.39,52,32,5.06,CN,1700371178
539,strezhevoy,60.7333,77.5889,-15.02,92,70,4.47,RU,1700370886
540,baie-saint-paul,47.4411,-70.4986,1.7,73,15,1.42,CA,1700371178
541,lagoa,39.05,-27.9833,16.06,69,24,3.81,PT,1700371179
542,leava,-14.3,-178.1667,28.51,81,32,9.12,WF,1700371179
543,benghazi,32.1167,20.0667,19.07,53,7,11.02,LY,1700370917
544,muisne,0.6,-80.0333,24.43,85,82,1.99,EC,1700371179
545,balaklava,44.5,33.6,8.54,71,100,4.05,UA,1700370941
546,totness,5.8833,-56.3167,26.26,79,0,4.77,SR,1700371180
547,maun,-19.9833,23.4167,28.87,25,62,2.74,BW,1700371180
548,santa ana de yacuma,-13.75,-65.4333,31.86,39,100,1.98,BO,1700371180
549,nikolayevsk-on-amure,53.1406,140.73,-0.84,93,100,2.16,RU,1700371180
550,n'dalatando,-9.2978,14.9116,19.93,89,98,0.19,AO,1700371181
551,rosso,16.4986,-15.8153,27.01,23,66,3.67,SN,1700371181
552,bratsk,56.1325,101.6142,3.27,74,100,5.19,RU,1700371181
553,mili,6.0815,171.735,28.7,76,95,5.88,MH,1700371181
554,boden,65.8252,21.6886,-12.0,97,64,1.22,SE,1700371181
555,piti village,13.4626,144.6933,30.73,84,100,4.63,GU,1700371182
556,alo,7.4178,6.7371,24.43,78,95,0.98,NG,1700371182
557,moniquira,5.8764,-73.5728,16.46,97,100,0.52,CO,1700371182
558,thinadhoo,0.5333,72.9333,28.14,78,17,4.8,MV,1700371182
559,melfort,52.8667,-104.6177,1.07,80,10,4.12,CA,1700371183
560,ceres,37.5949,-120.9577,15.59,98,100,0.0,US,1700371183
561,sao miguel do araguaia,-13.275,-50.1628,26.95,53,17,2.31,BR,1700371183
562,buraydah,26.326,43.975,19.25,73,64,6.57,SA,1700371183
563,simanggang,1.2472,111.4528,29.99,84,40,2.06,MY,1700371184
564,haparanda,65.8355,24.1368,-13.97,94,94,1.04,SE,1700371184
565,nishifukuma,33.7667,130.4667,16.0,59,7,8.56,JP,1700371184
566,saynshand,44.8824,110.1163,2.7,49,25,2.94,MN,1700371184
567,pokachi,61.7198,75.3683,-20.2,96,15,3.85,RU,1700371184
568,ahmadpur sial,30.6754,71.7483,24.42,23,1,0.79,PK,1700371185
569,poronaysk,49.2167,143.1167,3.51,72,45,5.04,RU,1700371185
570,sungai penuh,-2.0833,101.3833,25.56,72,100,0.9,ID,1700371186
571,tejen,37.3834,60.5054,16.8,49,2,5.57,TM,1700371186
572,hobyo,5.3505,48.5268,28.57,72,95,7.87,SO,1700371186
573,geisingen,47.9167,8.6333,10.59,75,100,5.82,DE,1700371187
574,kismayo,-0.3582,42.5454,26.54,82,93,5.21,SO,1700371187
575,kuala kangsar,4.7667,100.9333,30.96,79,100,1.55,MY,1700370923
576,luorong,24.4058,109.6086,22.53,38,35,1.32,CN,1700371188
577,sanatoga,40.2451,-75.5952,5.4,73,0,0.0,US,1700371188
578,lashkar gah,31.5938,64.3716,19.79,37,22,2.39,AF,1700370956
579,ornskoldsvik,63.2909,18.7153,-15.47,92,17,2.06,SE,1700371188
580,englewood,39.6478,-104.9878,9.9,54,40,0.0,US,1700371189
581,mount gambier,-37.8333,140.7667,20.3,48,100,3.86,AU,1700370702
582,paulden,34.8856,-112.4682,10.1,76,3,0.45,US,1700371189
583,mil'kovo,55.6078,37.7956,-7.75,64,72,2.24,RU,1700371189
584,kushalnagar,12.458,75.959,24.1,63,100,3.92,IN,1700371190
585,buchanan,5.8808,-10.0467,25.12,88,90,1.01,LR,1700371190
