City_ID,City,Lat,Lng,Max Temp,Humidity,Cloudiness,Wind Speed,Country,Date
0,grand falls-windsor,48.9332,-55.6649,11.95,94,100,5.36,CA,1700369832
1,vangaindrano,-23.35,47.6,25.07,77,93,3.84,MG,1700369832
2,wailua homesteads,22.0669,-159.378,25.24,86,89,0.89,US,1700369833
3,grytviken,-54.2811,-36.5092,1.09,98,100,1.89,GS,1700369761
4,ushuaia,-54.8,-68.3,0.81,75,75,9.77,AR,1700369833
5,adamstown,-25.066,-130.1015,21.8,87,100,9.46,PN,1700369834
6,bethel,41.3712,-73.414,3.05,71,0,0.45,US,1700369834
7,dudinka,69.4058,86.1778,-24.1,99,55,3.4,RU,1700369835
8,hithadhoo,-0.6,73.0833,27.94,78,16,5.64,MV,1700369835
9,bilibino,68.0546,166.4372,-28.71,100,98,1.73,RU,1700369836
10,quiindy,-25.9667,-57.2667,19.14,88,9,2.7,PY,1700369836
11,isafjordur,66.0755,-23.124,3.4,89,100,1.31,IS,1700369836
12,touros,-5.1989,-35.4608,25.8,81,20,4.93,BR,1700369836
13,puerto natales,-51.7236,-72.4875,0.08,89,8,1.39,CL,1700369837
14,blackmans bay,-43.0167,147.3167,18.07,72,88,2.95,AU,1700369837
15,badger,64.8,-147.5333,-13.86,85,100,1.54,US,1700369838
16,mel'nikovo,56.5558,84.085,2.92,84,100,7.85,RU,1700369617
17,tolanaro,-25.0319,46.9987,26.04,83,20,7.2,MG,1700369838
18,guerrero negro,27.9769,-114.0611,19.09,82,10,8.44,MX,1700369838
19,krusevo,41.3689,21.2489,-3.57,74,2,1.37,MK,1700369838
20,viedma,-40.8135,-62.9967,13.22,47,60,4.81,AR,1700369839
21,hinthada,17.6333,95.4667,28.76,71,25,6.36,MM,1700369839
22,remire-montjoly,4.9167,-52.2667,27.02,89,20,2.57,GF,1700369840
23,waitangi,-43.9535,-176.5597,10.46,95,100,2.24,NZ,1700369840
24,port-aux-francais,-49.35,70.2167,5.14,92,97,10.59,TF,1700369840
25,east london,-33.0153,27.9116,19.52,94,75,2.57,ZA,1700369607
26,laojunmiao,39.8333,97.7333,8.32,8,8,1.38,CN,1700369841
27,portland,45.5234,-122.6762,8.03,94,100,2.57,US,1700369590
28,klyuchi,52.2667,79.1667,-0.47,66,100,9.35,RU,1700369841
29,stanley,54.868,-1.6985,9.29,90,40,4.12,GB,1700369841
30,port elizabeth,-33.918,25.5701,18.51,88,0,3.6,ZA,1700369582
31,mana,5.6592,-53.7767,25.2,92,2,3.77,GF,1700369842
32,al ghayzah,16.2079,52.176,26.48,73,21,1.46,YE,1700369842
33,invercargill,-46.4,168.35,14.45,64,46,3.58,NZ,1700369645
34,menongue,-14.6585,17.691,21.41,63,67,3.65,AO,1700369842
35,fale old settlement,-9.3852,-171.2468,29.51,76,56,8.31,TK,1700369843
36,anadyr,64.75,177.4833,-13.72,92,90,3.0,RU,1700369843
37,papatowai,-46.5619,169.4708,13.07,61,22,4.23,NZ,1700369843
38,nova vicosa,-17.8919,-39.3719,24.97,80,2,6.91,BR,1700369844
39,tynda,55.1667,124.7167,-8.44,77,16,1.83,RU,1700369844
40,punta arenas,-53.15,-70.9167,3.06,60,0,5.66,CL,1700369845
41,chittarkonda,18.1167,82.0833,27.44,53,74,1.38,IN,1700369845
42,kailua-kona,19.6406,-155.9956,24.72,76,90,1.34,US,1700369845
43,port alfred,-33.5906,26.891,16.77,98,100,3.04,ZA,1700369599
44,bredasdorp,-34.5322,20.0403,17.65,76,100,1.78,ZA,1700369846
45,edinburgh of the seven seas,-37.0676,-12.3116,12.91,84,43,16.72,SH,1700369846
46,bull savanna,17.8868,-77.5902,23.4,85,60,2.76,JM,1700369846
47,bikenibeu village,1.3673,173.1241,30.98,74,20,2.06,KI,1700369847
48,kinkala,-4.3614,14.7644,21.48,96,87,1.25,CG,1700369847
49,tazovsky,67.4667,78.7,-22.1,98,94,3.62,RU,1700369847
50,al wafrah,28.6392,47.9306,19.58,56,99,3.15,KW,1700369848
51,veraval,20.9,70.3667,28.46,40,0,2.9,IN,1700369848
52,puerto maldonado,-12.6,-69.1833,29.95,49,100,1.21,PE,1700369848
53,la junta,37.985,-103.5438,11.71,35,87,2.91,US,1700369848
54,carnarvon,-24.8667,113.6333,27.93,57,2,7.39,AU,1700369611
55,tsiombe,-25.3,45.4833,30.18,45,1,1.24,MG,1700369849
56,camabatela,-8.1881,15.375,17.29,91,89,1.05,AO,1700369849
57,olonkinbyen,70.9221,-8.7187,0.07,97,100,2.2,SJ,1700369849
58,beni mellal,32.3373,-6.3498,17.71,30,0,1.81,MA,1700369850
59,baglung,28.2719,83.5898,21.18,55,45,1.98,NP,1700369850
60,lompoc,34.6391,-120.4579,15.99,88,100,4.02,US,1700369850
61,raahe,64.6833,24.4833,-0.58,80,18,5.5,FI,1700369851
62,uturoa,-16.7333,-151.4333,26.0,79,57,10.05,PF,1700369851
63,kotaparh,19.15,82.35,26.29,52,100,3.0,IN,1700369851
64,fort bragg,35.139,-79.006,13.79,66,0,1.34,US,1700369851
65,ribeira grande,38.5167,-28.7,14.87,73,54,4.02,PT,1700369851
66,nuuk,64.1835,-51.7216,-0.53,81,87,10.6,GL,1700369723
67,krasnovishersk,60.4078,57.082,-8.33,94,100,2.61,RU,1700369852
68,preobrazheniye,42.9019,133.9064,5.65,46,82,7.61,RU,1700369852
69,vila do maio,15.1333,-23.2167,24.44,66,100,5.81,CV,1700369853
70,inyonga,-6.7167,32.0667,22.87,62,65,2.94,TZ,1700369853
71,ust-nera,64.5667,143.2,-25.26,100,97,0.1,RU,1700369854
72,puerto ayora,-0.7393,-90.3518,21.42,96,33,2.3,EC,1700369855
73,marka,1.7159,44.7717,27.33,79,100,3.61,SO,1700369855
74,sisimiut,66.9395,-53.6735,-0.74,82,97,11.05,GL,1700369727
75,vladimir,56.1366,40.3966,-5.23,62,65,1.79,RU,1700369855
76,novodnistrovsk,48.5849,27.4311,-2.37,85,19,4.42,UA,1700369856
77,westport,41.1415,-73.3579,5.42,67,0,1.34,US,1700369850
78,yuzhno-kurilsk,44.0306,145.8556,5.76,84,94,12.93,RU,1700369844
79,show low,34.2542,-110.0298,7.16,94,0,4.63,US,1700369857
80,hawaiian paradise park,19.5933,-154.9731,22.72,91,88,4.74,US,1700369857
81,margaret river,-33.95,115.0667,22.57,52,78,6.96,AU,1700369858
82,ribeira brava,32.65,-17.0667,20.4,79,11,1.17,PT,1700369858
83,bay roberts,47.5999,-53.2648,12.25,89,100,4.02,CA,1700369858
84,pizarro,4.9533,-77.366,24.96,88,97,0.8,CO,1700369859
85,college,64.8569,-147.8028,-13.82,83,100,1.54,US,1700369860
86,andergrove,-21.0833,149.1833,30.91,65,8,4.95,AU,1700369860
87,qaqortoq,60.7167,-46.0333,-0.51,99,100,1.7,GL,1700369861
88,whitehorse,60.7161,-135.0538,-12.57,60,100,5.66,CA,1700369861
89,iquitos,-3.7481,-73.2472,27.02,89,20,0.0,PE,1700369861
90,brokopondo,4.75,-55.1667,25.02,86,0,3.69,SR,1700369862
91,farkhar,36.5729,69.8578,14.82,53,100,1.28,AF,1700369862
92,ulanhot,46.0833,122.0833,3.9,44,0,5.09,CN,1700369862
93,selfoss,63.9331,-20.9971,-2.2,66,85,2.95,IS,1700369863
94,haiku-pauwela,20.9219,-156.3051,23.47,76,63,0.89,US,1700369863
95,victorica,-36.2151,-65.4359,14.13,36,3,4.94,AR,1700369863
96,petropavlovsk-kamchatsky,53.0452,158.6483,0.33,98,100,5.81,RU,1700369702
97,aasiaat,68.7098,-52.8699,-3.35,91,100,4.3,GL,1700369864
98,bridgewater,44.3835,-64.5155,6.82,91,100,9.77,CA,1700369864
99,constantia,44.1833,28.65,2.61,90,100,18.19,RO,1700369864
100,oranjemund,-28.55,16.4333,17.1,73,9,1.99,NA,1700369865
101,vylkove,45.4021,29.586,2.38,91,100,14.89,UA,1700369865
102,west island,-12.1568,96.8225,28.99,65,75,5.66,CC,1700369866
103,coquimbo,-29.9533,-71.3436,13.85,94,0,1.03,CL,1700369866
104,holualoa,19.6228,-155.9522,22.65,75,93,1.34,US,1700369866
105,yellowknife,62.456,-114.3525,-3.66,95,100,6.17,CA,1700369866
106,thompson,55.7435,-97.8558,-12.91,92,75,1.03,CA,1700369867
107,jamestown,42.097,-79.2353,5.31,84,13,0.89,US,1700369867
108,ciudad bolivar,8.1222,-63.5497,25.56,78,27,4.47,VE,1700369867
109,chipiona,36.7366,-6.437,13.12,94,0,2.06,ES,1700369868
110,quelimane,-17.8786,36.8883,25.97,88,20,3.6,MZ,1700369868
111,dumka,24.2667,87.25,27.34,47,0,3.07,IN,1700369869
112,vernon,50.2581,-119.2691,0.97,88,69,0.51,CA,1700369869
113,djenne,13.9061,-4.5533,25.5,18,87,4.23,ML,1700369869
114,gorontalo,0.5412,123.0595,31.72,61,82,2.35,ID,1700369661
115,hamilton,39.1834,-84.5333,4.87,78,4,0.45,US,1700369787
116,pattaya,12.9333,100.8833,29.02,62,79,5.9,TH,1700369828
117,bubaque,11.2833,-15.8333,28.18,74,10,4.37,GW,1700369870
118,fortuna,40.5982,-124.1573,12.03,94,100,3.6,US,1700369870
119,beyneu,45.3167,55.2,7.38,70,85,4.68,KZ,1700369871
120,gampola,7.1643,80.5696,27.82,65,90,1.42,LK,1700369871
121,saint-philippe,-21.3585,55.7679,24.77,63,0,3.48,RE,1700369871
122,huarmey,-10.0681,-78.1522,19.69,83,100,4.19,PE,1700369872
123,mugia,43.1041,-9.2179,16.76,95,99,1.91,ES,1700369872
124,susuman,62.7833,148.1667,-27.02,99,89,0.84,RU,1700369873
125,harstad,68.799,16.5293,-1.58,94,99,2.68,NO,1700369873
126,belleville,44.1788,-77.3705,7.88,74,0,5.14,CA,1700369873
127,argo,37.6333,22.7333,11.55,54,3,1.59,GR,1700369873
128,bowen,-20.0167,148.2333,26.81,64,78,6.07,AU,1700369874
129,trunovskoye,45.4878,42.1358,4.72,78,100,10.94,RU,1700369874
130,zurrieq,35.8311,14.4742,16.09,58,20,3.6,MT,1700369875
131,utrik,11.2278,169.8474,27.92,77,19,6.92,MH,1700369875
132,hammerfest,70.6634,23.6821,-2.75,74,40,4.63,NO,1700369876
133,atafu village,-8.5421,-172.5159,29.79,76,89,7.77,TK,1700369876
134,naze,28.3667,129.4833,18.51,59,93,4.3,JP,1700369850
135,valmiera,57.5411,25.4275,-1.99,95,70,1.82,LV,1700369877
136,biankouma,7.7391,-7.6138,21.08,95,99,0.92,CI,1700369877
137,novobataysk,46.8981,39.7819,5.73,78,100,10.17,RU,1700369878
138,wangjing,24.6,94.0333,22.99,59,18,0.76,IN,1700369850
139,ilulissat,69.2167,-51.1,1.4,70,100,7.06,GL,1700369878
140,genhe,50.7833,121.5167,-3.38,62,25,2.3,CN,1700369597
141,ketchikan,55.3422,-131.6461,5.99,97,100,3.57,US,1700369879
142,amga,60.8953,131.9608,-18.32,97,100,1.01,RU,1700369879
143,albany,42.6001,-73.9662,1.0,77,1,0.45,US,1700369880
144,smithers,54.7804,-127.1743,3.18,100,100,1.03,CA,1700369880
145,gaiman,-43.2897,-65.4929,12.01,58,46,9.93,AR,1700369881
146,port mathurin,-19.6833,63.4167,25.42,79,98,6.59,MU,1700369881
147,figuig (centre),32.1089,-1.2286,13.02,33,0,1.17,MA,1700369882
148,nova xavantina,-14.6667,-52.35,27.43,53,82,0.71,BR,1700369882
149,new norfolk,-42.7826,147.0587,18.72,50,93,1.52,AU,1700369882
150,antofagasta,-23.65,-70.4,16.6,79,22,0.9,CL,1700369883
151,saipan,15.1355,145.701,28.54,86,80,9.77,MP,1700369813
152,tiksi,71.6872,128.8694,-30.48,100,64,2.51,RU,1700369861
153,sejenane,37.0572,9.2381,14.53,87,12,2.81,TN,1700369884
154,port augusta,-32.5,137.7667,27.87,30,22,9.66,AU,1700369884
155,puerto ayacucho,5.6639,-67.6236,24.69,91,97,1.81,VE,1700369885
156,irece,-11.3042,-41.8558,26.3,52,88,2.96,BR,1700369885
157,kariya,34.9833,136.9833,15.99,48,21,3.74,JP,1700369886
158,orapa,-21.2833,25.3667,27.57,29,8,5.81,BW,1700369886
159,paka,4.6374,103.4368,23.96,100,40,1.54,MY,1700369887
160,kashgar,39.4547,75.9797,7.56,36,20,2.0,CN,1700369887
161,manokwari,-0.8667,134.0833,29.17,71,46,5.33,ID,1700369888
162,el ocotito,17.25,-99.5667,22.21,98,69,0.22,MX,1700369888
163,enewetak,11.3474,162.3373,28.24,78,30,6.98,MH,1700369888
164,kristiansund,63.1115,7.732,-0.64,64,100,2.06,NO,1700369889
165,talnakh,69.4865,88.3972,-24.33,99,65,0.48,RU,1700369602
166,colonia,50.9333,6.95,13.57,85,75,3.6,DE,1700369636
167,sitka,57.0531,-135.33,1.96,73,100,2.1,US,1700369889
168,kill devil hills,36.0307,-75.676,13.32,59,0,7.72,US,1700369890
169,ulladulla,-35.35,150.4667,34.87,55,16,8.47,AU,1700369890
170,cabo san lucas,22.8909,-109.9124,27.09,81,1,0.45,MX,1700369890
171,melekeok village,7.4957,134.6367,30.31,79,100,4.12,PW,1700369891
172,hermanus,-34.4187,19.2345,17.66,76,100,1.85,ZA,1700369891
173,pisco,-13.7,-76.2167,19.03,88,100,2.57,PE,1700369892
174,gucheng chengguanzhen,32.266,111.6348,20.47,38,0,0.9,CN,1700369892
175,sumbawa besar,-8.5,117.4333,35.47,39,7,4.77,ID,1700369892
176,bel ombre,-4.6167,55.4167,28.91,84,75,1.54,SC,1700369893
177,hanceville,34.0607,-86.7675,10.65,68,0,2.22,US,1700369893
178,inhambane,-23.865,35.3833,25.27,69,41,3.55,MZ,1700369893
179,brandon,27.9378,-82.2859,21.92,90,40,2.68,US,1700369893
180,kaoma,-14.7833,24.8,23.23,28,52,3.01,ZM,1700369894
181,inari,68.906,27.0288,-18.89,97,89,1.6,FI,1700369894
182,porto seguro,-16.4497,-39.0647,24.29,88,20,2.06,BR,1700369895
183,worland,44.0169,-107.9554,0.64,39,100,1.34,US,1700369895
184,kapuskasing,49.4169,-82.4331,-4.0,86,100,5.66,CA,1700369895
185,ilebo,-4.3167,20.5833,21.86,100,100,0.52,CD,1700369896
186,namibe,-15.1961,12.1522,24.9,73,99,4.39,AO,1700369896
187,timbiras,-4.2553,-43.9406,25.92,78,100,1.93,BR,1700369896
188,nishinoomote,30.7333,131.0,17.31,59,75,8.75,JP,1700369836
189,el granada,37.5027,-122.4694,16.45,92,100,2.06,US,1700369897
190,san juan,-31.5375,-68.5364,18.46,22,4,3.5,AR,1700369897
191,slave lake,55.2834,-114.769,0.99,86,100,1.54,CA,1700369898
192,tsetserleg,47.475,101.4542,2.52,79,56,2.1,MN,1700369899
193,novaya ladoga,60.1025,32.3019,-5.43,90,97,3.06,RU,1700369899
194,kauhajoki,62.4333,22.1833,-3.27,95,27,1.34,FI,1700369899
195,novotroitsk,51.203,58.3266,-8.61,50,0,1.81,RU,1700369900
196,luderitz,-26.6481,15.1594,18.07,63,0,3.48,NA,1700369900
197,gaigeturi,33.4644,126.3183,15.03,55,40,6.17,KR,1700369900
198,santa maria del oro,25.9333,-105.3667,18.18,51,28,1.61,MX,1700369901
199,lhasa,29.65,91.1,8.26,29,0,0.82,CN,1700369738
200,elko,41.0002,-115.5012,5.91,90,100,1.79,US,1700369902
201,ibiruba,-28.6275,-53.0897,14.92,93,0,1.62,BR,1700369902
202,caleta de carquin,-11.0925,-77.6267,19.48,82,100,3.74,PE,1700369903
203,ola,59.5833,151.2833,-4.99,74,100,5.49,RU,1700369903
204,cruzeiro do sul,-29.5128,-51.9853,18.62,91,2,0.2,BR,1700369904
205,castillos,-34.1667,-53.8333,12.06,49,100,2.1,UY,1700369904
206,rikaze,29.25,88.8833,7.93,13,0,0.65,CN,1700369905
207,macia,-25.0269,33.0989,25.34,52,98,2.38,MZ,1700369905
208,codrington,-38.2667,141.9667,18.43,58,100,4.87,AU,1700369906
209,musan-up,42.2261,129.2078,2.4,63,21,8.0,KP,1700369906
210,port lincoln,-34.7333,135.8667,18.42,60,83,6.3,AU,1700369906
211,nouadhibou,20.931,-17.0347,21.99,56,0,4.63,MR,1700369907
212,avarua,-21.2078,-159.775,24.03,64,75,5.66,CK,1700369712
213,cajamarca,-7.1638,-78.5003,12.52,90,93,0.39,PE,1700369907
214,healesville,-37.65,145.5167,29.09,32,44,1.34,AU,1700369908
215,vizinga,61.0749,50.1031,-6.65,90,100,3.31,RU,1700369908
216,revda,56.801,59.9303,-8.39,81,100,4.82,RU,1700369909
217,bria,6.5423,21.9863,20.7,79,98,1.45,CF,1700369909
218,ostashkov,57.1467,33.1075,-8.82,94,100,1.54,RU,1700369909
219,pacific grove,36.6177,-121.9166,15.76,90,14,2.68,US,1700369910
220,laguna,38.421,-121.4238,15.72,88,75,5.66,US,1700369910
221,piterka,50.6803,47.4454,-4.01,71,3,4.33,RU,1700369910
222,ancud,-41.8697,-73.8203,9.92,87,100,3.48,CL,1700369911
223,hami,42.8,93.45,6.63,31,5,1.43,CN,1700369912
224,hadibu,12.65,54.0333,26.95,76,14,3.53,YE,1700369912
225,iqaluit,63.7506,-68.5145,-4.15,79,100,4.63,CA,1700369912
226,antalaha,-14.9003,50.2788,25.58,82,73,3.97,MG,1700369913
227,tindouf,27.6711,-8.1474,14.25,26,0,2.06,DZ,1700369915
228,konosha,60.9736,40.257,-6.49,92,99,3.08,RU,1700369915
229,bogale,16.2833,95.4,29.7,66,30,3.61,MM,1700369915
230,urengoy,65.9667,78.3667,-22.92,99,91,2.87,RU,1700369916
231,udachny,66.4167,112.4,-24.51,99,39,0.58,RU,1700369861
232,lebu,-37.6167,-73.65,9.56,89,37,1.8,CL,1700369916
233,kone,-21.0595,164.8658,27.13,63,30,3.29,NC,1700369916
234,benghazi,32.1167,20.0667,19.07,53,7,11.02,LY,1700369917
235,mariehamn,60.0973,19.9348,-1.08,74,100,2.57,AX,1700369917
236,keflavik,64.0049,-22.5624,0.24,86,0,3.6,IS,1700369918
237,nova sintra,14.8667,-24.7167,23.26,63,93,5.59,CV,1700369919
238,louiseville,46.2559,-72.9415,1.95,64,72,5.66,CA,1700369919
239,acarau,-2.8856,-40.12,26.18,83,45,5.12,BR,1700369920
240,brisas de zicatela,15.8369,-97.0419,25.82,89,8,1.36,MX,1700369920
241,saldanha,-33.0117,17.9442,15.03,83,100,2.1,ZA,1700369920
242,tocopilla,-22.092,-70.1979,17.62,71,17,0.36,CL,1700369921
243,deqen,29.9618,90.7188,6.28,26,0,0.96,CN,1700369912
244,thunder bay,48.4001,-89.3168,0.99,59,100,3.09,CA,1700369921
245,la passe,45.5549,-0.8967,15.55,92,49,5.33,FR,1700369921
246,monrovia,6.3005,-10.7969,22.87,87,74,1.1,LR,1700369922
247,yeghvard,40.3205,44.4814,7.88,61,99,1.23,AM,1700369922
248,djambala,-2.5447,14.7533,19.52,95,92,0.55,CG,1700369922
249,quellon,-43.1167,-73.6167,8.66,89,100,3.17,CL,1700369923
250,senanga,-16.1167,23.2667,24.86,27,31,2.5,ZM,1700369923
251,belmonte,-15.8631,-38.8828,25.25,81,7,5.34,BR,1700369923
252,boende,-0.2167,20.8667,21.97,99,86,0.68,CD,1700369924
253,porto novo,6.4965,2.6036,25.45,88,100,2.08,BJ,1700369924
254,papao,-17.75,-149.55,27.82,81,68,11.24,PF,1700369925
255,manaure,11.7751,-72.4445,27.47,84,100,1.9,CO,1700369925
256,el vigia,8.6219,-71.6506,24.7,88,100,1.76,VE,1700369925
257,xinshi,31.047,113.141,19.52,43,9,3.27,CN,1700369925
258,ormond-by-the-sea,29.3491,-81.0665,18.94,93,0,0.45,US,1700369926
259,inarajan village,13.2736,144.7484,30.78,87,84,6.68,GU,1700369926
260,afaahiti,-17.75,-149.2833,26.93,80,83,9.69,PF,1700369927
261,soc trang,9.6033,105.98,28.68,65,100,2.1,VN,1700369927
262,kapa'a,22.0752,-159.319,25.99,86,87,0.89,US,1700369928
263,barra dos coqueiros,-10.9089,-37.0386,26.01,89,40,4.63,BR,1700369929
264,bulungu,-4.55,18.6,21.71,95,100,1.08,CD,1700369929
265,amarante do maranhao,-5.5667,-46.7422,25.0,72,35,1.2,BR,1700369929
266,kismayo,-0.3582,42.5454,26.54,82,93,5.21,SO,1700369930
267,betio village,1.358,172.9211,31.02,71,7,1.76,KI,1700369930
268,les cayes,18.2,-73.75,25.34,87,95,0.75,HT,1700369931
269,spencer,43.1414,-95.1444,8.07,72,0,1.86,US,1700369931
270,siwa oasis,29.2041,25.5195,17.12,79,0,5.58,EG,1700369931
271,isangel,-19.55,169.2667,26.06,74,74,4.83,VU,1700369932
272,san luis de la loma,17.2706,-100.8939,26.03,88,7,1.09,MX,1700369932
273,nafpaktos,38.3917,21.8275,11.07,49,0,2.13,GR,1700369933
274,san antonio oeste,-40.7319,-64.9477,15.95,42,45,9.85,AR,1700369933
275,noumea,-22.2763,166.4572,27.99,82,55,3.94,NC,1700369468
276,ayorou,14.7308,0.9174,23.92,21,79,4.19,NE,1700369934
277,bardai,11.65,7.2333,19.33,24,100,4.94,NG,1700369935
278,kerikeri,-35.2268,173.9474,21.62,87,55,1.34,NZ,1700369935
279,coruripe,-10.1256,-36.1756,24.78,82,0,4.66,BR,1700369936
280,eyl,7.9803,49.8164,27.81,71,100,7.77,SO,1700369936
281,kourou,5.1552,-52.6478,27.03,91,18,2.86,GF,1700369937
282,sabang,5.8933,95.3214,27.67,80,87,9.41,ID,1700369937
283,kirakira,-10.4544,161.9205,29.07,75,24,4.6,SB,1700369937
284,melfort,52.8667,-104.6177,2.07,75,10,3.6,CA,1700369937
285,yanam,16.7333,82.2167,29.65,59,92,4.26,IN,1700369938
286,turpan,42.9333,89.1667,9.41,33,15,1.42,CN,1700369938
287,trenggalek,-8.05,111.7167,32.55,47,82,4.05,ID,1700369801
288,san patricio,28.017,-97.5169,19.91,77,71,2.24,US,1700369938
289,la'ie,21.6477,-157.9253,25.0,72,99,1.75,US,1700369939
290,capayan,-28.761,-66.0502,23.78,55,29,0.97,AR,1700369939
291,nar'yan-mar,67.6713,53.087,-14.94,97,62,3.58,RU,1700369939
292,pergamino,-33.89,-60.5736,11.57,35,80,3.75,AR,1700369940
293,iskateley,67.6803,53.1512,-14.99,97,57,3.58,RU,1700369940
294,sao joao da barra,-21.6403,-41.0511,23.77,88,28,4.5,BR,1700369941
295,mendefera,14.8872,38.8153,18.66,66,100,1.26,ER,1700369941
296,gadzhiyevo,69.2551,33.3362,-11.57,97,73,3.2,RU,1700369941
297,buka,40.8108,69.1986,13.01,61,99,1.4,UZ,1700369941
298,qashyr,53.0675,76.1036,-2.93,52,82,8.42,KZ,1700369942
299,ujae,8.9322,165.7642,28.42,77,65,6.62,MH,1700369943
300,st. john's,47.5649,-52.7093,12.04,94,100,11.32,CA,1700369850
301,ta`u,-14.2336,-169.5144,27.33,71,50,9.6,AS,1700369943
302,zhangjiakou,40.81,114.8794,7.29,29,0,0.98,CN,1700369944
303,dogondoutchi,13.6393,4.0287,24.48,19,54,3.46,NE,1700369944
304,magadan,59.5667,150.8,-5.18,74,100,4.94,RU,1700369818
305,lihue,21.9789,-159.3672,25.58,81,90,4.48,US,1700369944
306,paita,-5.0892,-81.1144,19.9,86,100,3.17,PE,1700369945
307,monte alegre,-2.0078,-54.0692,26.86,57,52,1.97,BR,1700369946
308,novyy urgal,51.0736,132.5642,-4.64,85,100,0.41,RU,1700369946
309,umba,66.6871,34.3429,-11.42,94,62,1.9,RU,1700369946
310,honcho,35.6931,139.9833,20.67,42,20,3.6,JP,1700369707
311,taro,-8.3862,115.28,24.0,48,13,2.33,ID,1700369947
312,borogontsy,62.6683,131.1683,-22.8,97,100,2.09,RU,1700369948
313,liezen,47.5667,14.2333,7.6,99,100,2.19,AT,1700369948
314,turaif,31.6725,38.6637,13.14,71,0,2.57,SA,1700369948
315,kapit,2.0167,112.9333,30.46,75,93,0.38,MY,1700369939
316,san antonio de pale,-1.4014,5.6325,25.01,92,100,4.67,GQ,1700369949
317,kedainiai,55.2883,23.9747,-0.74,91,12,1.61,LT,1700369949
318,dwarka,22.2394,68.9678,27.18,37,0,4.85,IN,1700369950
319,sinan,34.8262,126.1086,15.06,64,5,8.99,KR,1700369950
320,pemba,-12.974,40.5178,26.39,94,40,1.54,MZ,1700369950
321,bassar,9.25,0.7833,22.54,32,39,0.64,TG,1700369951
322,itoman,26.1247,127.6694,23.21,49,20,5.66,JP,1700369736
323,vallegrande,-18.4897,-64.1069,16.86,86,97,0.45,BO,1700369951
324,nemuro,43.3236,145.575,9.07,67,63,10.03,JP,1700369951
325,sevastopol,44.6,33.5333,8.33,71,100,1.86,UA,1700369952
326,los andes,-32.8337,-70.5983,13.89,50,18,0.62,CL,1700369952
327,sinabang,2.4803,96.3801,28.04,78,97,1.49,ID,1700369952
328,hage,53.6167,7.2667,11.98,97,65,9.86,DE,1700369953
329,prado,-17.3411,-39.2208,24.54,79,5,5.95,BR,1700369953
330,morlaix,48.5833,-4.0,13.09,86,75,7.72,FR,1700369953
331,rongelap,11.1635,166.8941,28.09,78,28,7.08,MH,1700369953
332,ouarzazat,30.9189,-6.8934,9.16,27,0,1.54,MA,1700369954
333,khandyga,62.6667,135.6,-15.36,96,100,2.02,RU,1700369954
334,beichengqu,40.4394,113.1536,6.22,25,2,1.7,CN,1700369955
335,palatka,29.6486,-81.6376,17.77,98,2,0.56,US,1700369956
336,lorengau,-2.0226,147.2712,29.4,72,9,5.07,PG,1700369956
337,aleksandrov gay,50.147,48.5704,-2.43,67,13,5.71,RU,1700369956
338,mahina,-17.5065,-149.489,27.87,69,40,2.06,PF,1700369957
339,qamdo,31.1667,97.2333,2.37,23,0,1.87,CN,1700369957
340,lazaro cardenas,17.9583,-102.2,26.09,88,11,1.49,MX,1700369957
341,linares,-35.85,-71.6,8.52,89,53,1.93,CL,1700369958
342,punta umbria,37.1821,-6.9661,12.91,69,27,3.14,ES,1700369958
343,havre,49.5833,0.3333,12.22,87,20,8.75,FR,1700369958
344,trancas,-26.2314,-65.2803,22.09,74,89,2.32,AR,1700369959
345,birjand,32.8663,59.2211,9.26,76,0,2.06,IR,1700369959
346,cockburn town,21.4612,-71.1419,27.83,77,27,6.31,TC,1700369959
347,al bawiti,28.3492,28.8659,17.15,72,0,5.43,EG,1700369960
348,san andres,12.5847,-81.7006,29.01,65,20,5.14,CO,1700369960
349,torghay,49.6339,63.4981,-2.17,65,11,2.45,KZ,1700369960
350,mogadishu,2.0371,45.3438,24.93,94,100,4.12,SO,1700369676
351,colonia del sacramento,-34.4667,-57.85,17.98,47,100,6.63,UY,1700369961
352,bac lieu,9.285,105.7244,28.26,67,84,2.37,VN,1700369779
353,oulad teima,30.3947,-9.209,15.6,30,0,2.46,MA,1700369962
354,bandon,51.7469,-8.7425,10.77,90,100,12.21,IE,1700369963
355,tan-tan,28.438,-11.1032,19.32,37,0,1.15,MA,1700369963
356,dryden,49.7833,-92.7503,-3.84,100,20,1.03,CA,1700369963
357,vorgashor,67.5833,63.95,-28.61,100,96,1.23,RU,1700369910
358,tobelo,1.7284,128.0095,29.09,72,74,1.32,ID,1700369492
359,floro,61.5996,5.0328,6.98,45,100,7.72,NO,1700369965
360,salahonda,2.1019,-78.7217,26.32,79,98,1.54,CO,1700369965
361,kenai,60.5544,-151.2583,-12.74,89,47,2.85,US,1700369966
362,nanpiao,41.0982,120.7479,10.5,33,0,7.67,CN,1700369966
363,fort st. john,56.2499,-120.8529,3.94,75,75,3.6,CA,1700369967
364,cavelossim,15.1726,73.9419,30.99,52,68,1.32,IN,1700369967
365,tataouine,32.9297,10.4518,13.33,76,20,2.75,TN,1700369968
366,lib,8.3122,167.3766,28.34,79,69,6.81,MH,1700369968
367,puerto deseado,-47.7503,-65.8938,7.06,62,32,6.91,AR,1700369968
368,wangaratta,-36.3667,146.3333,33.59,22,0,2.83,AU,1700369969
369,neryungri,56.6709,124.6491,-6.09,92,98,0.76,RU,1700369969
370,akureyri,65.6835,-18.0878,-4.04,93,75,0.51,IS,1700369969
371,mutsu,41.2894,141.2169,13.01,58,40,7.72,JP,1700369970
372,tete,-16.1564,33.5867,28.05,58,0,2.68,MZ,1700369970
373,nchelenge,-9.3451,28.734,22.72,76,99,1.6,ZM,1700369970
374,mamuju,-2.6748,118.8885,30.05,70,27,2.5,ID,1700369971
375,redencao,-4.2258,-38.7306,25.29,87,65,1.45,BR,1700369971
376,la paz,-16.5,-68.15,12.99,87,75,2.57,BO,1700369736
377,queenstown,-31.8976,26.8753,19.89,48,65,1.51,ZA,1700369972
378,burhar,23.2167,81.5333,25.49,51,0,2.3,IN,1700369972
379,candido mendes,-1.4467,-45.7167,25.35,84,97,1.72,BR,1700369972
380,mazagao,-0.115,-51.2894,28.03,90,97,2.15,BR,1700369973
381,laja,-37.2667,-72.7,5.99,95,20,0.5,CL,1700369973
382,hilo,19.7297,-155.09,23.12,89,87,1.79,US,1700369906
383,whakatane,-37.9585,176.9854,18.62,94,100,3.13,NZ,1700369973
384,georgetown,5.4112,100.3354,30.97,66,20,4.63,MY,1700369974
385,sal rei,16.1833,-22.9167,25.42,70,91,5.34,CV,1700369974
386,cam pha mines,21.0167,107.3,22.27,43,19,2.77,VN,1700369962
387,mandalgovi,45.7625,106.2708,5.0,23,62,6.75,MN,1700369975
388,newnham,-41.3833,147.1333,23.53,40,89,9.77,AU,1700369968
389,lichinga,-13.3128,35.2406,21.39,73,2,3.91,MZ,1700369975
390,faya-largeau,17.9257,19.1043,20.66,40,100,8.83,TD,1700369975
391,ghat,24.9647,10.1728,14.9,37,0,0.89,LY,1700369976
392,ust'-ilimsk,58.0006,102.6619,5.44,86,100,6.67,RU,1700369976
393,debark',13.1561,37.8981,13.09,76,99,1.17,ET,1700369976
394,rakops,-21.0167,24.3333,27.98,28,35,5.19,BW,1700369977
395,baltiysk,54.6538,19.911,0.16,81,59,5.98,RU,1700369977
396,darnah,32.767,22.6367,18.12,55,20,14.27,LY,1700369977
397,talakan,50.3167,130.3667,-4.91,82,100,4.38,RU,1700369736
398,farap,39.1704,63.6116,14.82,34,74,4.67,TM,1700369978
399,tuy hoa,13.0833,109.3,23.28,89,100,5.46,VN,1700369978
400,egilsstadir,65.2653,-14.3948,2.95,87,75,4.12,IS,1700369979
401,wakkanai,45.4094,141.6739,7.99,66,75,7.2,JP,1700369979
402,bolotnoye,55.6717,84.3981,-0.83,94,100,10.74,RU,1700369980
403,dunedin,-45.8742,170.5036,12.67,70,94,1.34,NZ,1700369971
404,santiago de cao,-7.9589,-79.2392,19.07,82,75,4.12,PE,1700369981
405,puerto cortez,15.8333,-87.95,22.89,76,51,3.01,HN,1700369981
406,labrador city,52.9463,-66.9114,-13.05,92,100,0.0,CA,1700369981
407,mega,4.05,38.3,16.34,88,92,3.31,ET,1700369982
408,arraial do cabo,-22.9661,-42.0278,23.71,92,93,1.75,BR,1700369983
409,happy valley-goose bay,53.3168,-60.3315,-1.83,86,100,4.12,CA,1700369984
410,kropyvnytskyi,48.5132,32.2597,-0.76,81,100,7.84,UA,1700369984
411,xapuri,-10.6517,-68.5044,29.95,47,100,1.5,BR,1700369984
412,sao geraldo do araguaia,-6.4006,-48.555,25.65,72,65,0.63,BR,1700369985
413,noosa heads,-26.3833,153.15,25.74,69,100,4.47,AU,1700369800
414,iwaki,37.05,140.8833,13.34,63,82,2.31,JP,1700369879
415,guaimaca,14.5333,-86.8167,16.3,94,37,1.51,HN,1700369986
416,mil'kovo,55.6078,37.7956,-5.87,64,72,2.24,RU,1700369871
417,tromso,69.6496,18.957,-1.99,86,75,4.12,NO,1700369986
418,fang,19.9169,99.2145,27.03,50,76,0.82,TH,1700369987
419,longyearbyen,78.2186,15.6401,-20.12,92,76,1.41,SJ,1700369987
420,tommot,58.9564,126.2925,-5.46,94,100,2.0,RU,1700369987
421,adiake,5.2863,-3.304,25.29,86,69,2.18,CI,1700369988
422,simanggang,1.2472,111.4528,29.99,84,20,2.06,MY,1700369988
423,krasnoshchekovo,51.6708,82.7289,1.92,65,98,11.19,RU,1700369989
424,saint-denis,48.9167,2.3333,14.43,90,100,5.14,FR,1700369774
425,akrehamn,59.2667,5.1833,6.9,75,100,13.89,NO,1700369990
426,vilhena,-12.7406,-60.1458,24.24,59,50,1.82,BR,1700369990
427,polyarnyy,69.1989,33.4478,-11.37,96,61,3.2,RU,1700369990
428,luwuk,-0.9516,122.7875,30.39,68,69,2.55,ID,1700369991
429,kalmunai,7.4167,81.8167,28.67,74,96,2.68,LK,1700369992
430,arteche,12.2645,125.4048,26.99,89,100,5.69,PH,1700369992
431,mineros,-17.1167,-63.2333,28.81,56,87,1.52,BO,1700369992
432,broken hill,-31.95,141.4333,30.18,15,89,2.71,AU,1700369899
433,murakami,38.2333,139.4833,14.94,67,100,5.36,JP,1700369994
434,sao gotardo,-19.3111,-46.0489,20.35,68,38,2.41,BR,1700369995
435,wau,7.7029,27.9953,24.55,79,96,1.8,SS,1700369995
436,qoryooley,1.7878,44.53,27.22,78,100,3.32,SO,1700369996
437,at taj,24.2049,23.2857,14.15,69,0,3.2,LY,1700369996
438,panama city beach,30.1766,-85.8055,16.68,81,0,0.89,US,1700369996
439,kodiak,57.79,-152.4072,-2.94,55,10,3.72,US,1700369997
440,sur,22.5667,59.5289,25.86,63,0,1.73,OM,1700369997
441,callao,-12.0667,-77.15,19.84,82,0,3.6,PE,1700369779
442,tupa,-21.9347,-50.5136,28.01,43,100,3.33,BR,1700369998
443,tecozautla,20.5333,-99.6333,15.55,69,2,1.38,MX,1700369998
444,aripuana,-9.1667,-60.6333,29.02,53,78,0.77,BR,1700369998
445,beneditinos,-5.45,-42.3667,26.17,64,56,1.97,BR,1700369998
446,khorixas,-20.3667,14.9667,24.53,48,100,3.08,NA,1700369999
447,berezovyy,51.6667,135.7,-2.86,91,100,0.77,RU,1700369999
448,vorkuta,67.5,64.0,-28.71,100,94,1.25,RU,1700370000
449,hit,33.6416,42.8251,18.58,56,0,6.56,IQ,1700370003
450,ulan bator,47.9077,106.8832,-6.93,68,41,1.0,MN,1700369819
451,pandan,14.0453,124.1694,26.55,86,97,8.99,PH,1700370006
452,cidreira,-30.1811,-50.2056,18.0,79,52,5.57,BR,1700370011
453,lakatoro,-16.0999,167.4164,27.96,74,50,4.0,VU,1700370015
454,tianpeng,30.9866,103.9393,16.23,53,0,1.62,CN,1700370018
455,leninskoye,41.7589,69.3864,11.56,72,99,1.59,KZ,1700370019
456,devils lake,48.1128,-98.8651,1.64,88,2,1.34,US,1700370020
457,sholokhovskiy,48.2807,41.0459,3.52,87,100,8.3,RU,1700370021
458,cadale,2.7603,46.3222,27.96,78,58,6.78,SO,1700370022
459,san juan del sur,11.2529,-85.8705,25.55,85,94,0.96,NI,1700370023
460,lerwick,60.1545,-1.1494,7.87,93,100,16.14,GB,1700370025
461,san fernando del valle de catamarca,-28.4696,-65.7852,23.21,49,35,4.47,AR,1700370004
462,thames,-37.1333,175.5333,17.33,98,100,1.95,NZ,1700370026
463,khanabad,36.6825,69.1156,18.16,50,95,1.04,AF,1700370026
464,belalcazar,2.6547,-75.9928,13.61,95,96,2.14,CO,1700370027
465,yeppoon,-23.1333,150.7333,22.88,92,100,6.18,AU,1700370027
466,bozhou,33.8772,115.7703,19.41,31,0,3.63,CN,1700369861
467,vilyuchinsk,52.9306,158.4028,1.15,99,100,3.93,RU,1700370028
468,mulayjah,27.271,48.4242,22.34,48,96,2.88,SA,1700370028
469,karatau,43.1667,70.4667,7.92,69,96,1.74,KZ,1700370029
470,cachoeirinha,-29.9511,-51.0939,19.62,89,6,2.18,BR,1700370029
471,vadso,70.0744,29.7487,-7.91,86,40,4.12,NO,1700370029
472,vuktyl,63.8567,57.3094,-11.05,95,100,2.68,RU,1700370030
473,margate,51.3813,1.3862,12.72,83,24,4.47,GB,1700370031
474,usol'ye-sibirskoye,52.7519,103.6453,2.93,79,91,4.49,RU,1700370032
475,pathein,16.7833,94.7333,29.34,69,21,4.78,MM,1700370032
476,taoudenni,22.6783,-3.9836,21.62,22,0,3.86,ML,1700370033
477,hola,51.5377,23.1902,0.1,99,100,2.21,PL,1700370033
478,olinda,-8.0089,-34.8553,25.45,78,1,3.72,BR,1700370034
479,port douglas,-16.4833,145.4667,27.08,63,24,3.13,AU,1700370034
480,pontianak,-0.0333,109.3333,31.99,66,40,3.09,ID,1700369950
481,port said,31.2565,32.2841,20.12,77,69,9.86,EG,1700370034
482,minas de marcona,-15.2119,-75.1103,14.12,85,79,4.13,PE,1700370035
483,kingston,17.997,-76.7936,27.53,90,40,3.09,JM,1700369783
484,hirara,24.8,125.2833,23.92,64,40,7.2,JP,1700369793
485,zeya,53.75,127.2667,-3.06,50,3,2.81,RU,1700370036
486,kindu,-2.95,25.95,22.09,99,100,0.32,CD,1700370036
487,lukolela,-1.0605,17.1821,21.55,98,94,0.34,CD,1700370037
488,myrina,39.8797,25.0742,9.58,87,20,0.0,GR,1700370037
489,luuq,3.7938,42.5445,26.67,75,100,3.23,SO,1700370038
490,karratha,-20.7377,116.8463,35.55,32,39,5.77,AU,1700370038
491,jha-jha,24.7667,86.3667,27.37,49,0,3.21,IN,1700370038
492,flers,48.7372,-0.5747,11.14,91,82,4.85,FR,1700370039
493,port saint john's,-31.6229,29.5448,22.27,79,68,2.37,ZA,1700370039
494,horsham,51.064,-0.3272,13.34,84,75,5.66,GB,1700370040
495,hpa-an,16.8906,97.6333,30.38,54,21,1.0,MM,1700370041
496,kwang binh,17.4833,106.6,22.54,71,96,5.25,VN,1700369866
497,tshabong,-26.05,22.45,27.21,38,6,5.93,BW,1700370041
498,ves'yegonsk,58.664,37.2604,-8.11,89,99,1.93,RU,1700370042
499,atbasar,51.8,68.3333,-5.82,69,7,3.93,KZ,1700370043
500,sinop,41.7711,34.8709,7.08,85,84,5.45,TR,1700370043
501,mukalla,14.5425,49.1242,27.11,69,23,2.47,YE,1700370043
502,nyazepetrovsk,56.0531,59.6028,-5.57,60,71,3.13,RU,1700370044
503,tughyl,47.7252,84.2063,6.7,66,100,0.12,KZ,1700370045
504,howard springs,-12.497,131.047,38.32,46,93,5.32,AU,1700370046
505,saint-francois,46.4154,3.9054,13.69,78,100,3.6,FR,1700370046
506,comayagua,14.45,-87.6333,18.85,97,64,1.47,HN,1700370046
507,radomsko,51.0671,19.4448,-0.05,87,100,3.6,PL,1700369797
508,anloga,5.7947,0.8973,27.18,82,71,4.45,GH,1700370047
509,abepura,-2.6333,140.5833,33.45,52,20,3.6,ID,1700370048
510,yaren,-0.5472,166.916,29.16,71,12,2.95,NR,1700370048
511,pangody,65.85,74.4859,-20.77,98,96,4.12,RU,1700370049
512,cinarcik,40.6412,29.146,1.88,98,100,11.08,TR,1700370049
513,omdurman,15.6445,32.4777,24.48,29,100,5.9,SD,1700370050
514,tingi,-11.3,35.0333,22.7,67,23,3.3,TZ,1700370050
515,antonio enes,-16.2325,39.9086,28.73,61,27,2.99,MZ,1700370051
516,tubarjal,30.4999,38.216,15.95,69,0,2.74,SA,1700370051
517,korsakov,46.6328,142.7813,5.91,68,45,8.43,RU,1700370051
518,alofi,-19.0595,-169.9187,24.88,75,14,9.41,NU,1700370052
519,bugo,8.5083,124.7594,28.04,79,100,1.79,PH,1700370052
520,ambatofinandrahana,-20.55,46.8,22.05,60,41,1.22,MG,1700370052
521,salinopolis,-0.6136,-47.3561,27.33,79,99,5.14,BR,1700370053
522,prince george,53.9166,-122.753,-0.31,97,75,3.6,CA,1700370053
523,samal,7.0744,125.7083,30.25,68,75,1.18,PH,1700370054
524,merizo village,13.2658,144.6691,30.55,87,88,6.82,GU,1700370054
525,ca mau,9.1769,105.15,29.52,60,80,3.09,VN,1700370023
526,usogorsk,63.4106,48.6872,-8.52,94,100,3.9,RU,1700370054
527,fortaleza,-3.7227,-38.5247,27.9,83,40,3.6,BR,1700370007
528,korla,41.7597,86.1469,5.55,30,100,1.22,CN,1700370055
529,chonchi,-42.6128,-73.8092,9.51,98,69,1.22,CL,1700370056
530,gumla,23.05,84.55,23.98,55,0,2.67,IN,1700370057
531,sona,45.4388,10.8255,5.52,81,0,1.03,IT,1700370057
532,talcahuano,-36.7167,-73.1167,10.14,87,9,2.12,CL,1700370058
533,morant bay,17.8815,-76.4093,24.84,86,100,1.41,JM,1700370058
534,chichiriviche,10.9333,-68.2772,26.82,88,100,1.84,VE,1700370059
535,doctor mora,21.1417,-100.3125,12.23,70,0,0.99,MX,1700370059
536,weno,7.4515,151.8468,28.75,74,62,3.22,FM,1700370060
537,hobyo,5.3505,48.5268,28.57,72,95,7.87,SO,1700370061
538,arroio grande,-32.2375,-53.0869,12.31,69,46,1.98,BR,1700370063
539,klaksvik,62.2266,-6.589,8.51,91,100,14.93,FO,1700370064
540,martuk,50.7475,56.5056,-3.78,57,0,1.86,KZ,1700370066
541,burang,30.25,81.1667,3.47,22,1,2.98,CN,1700370066
542,dongargarh,21.2,80.7333,26.91,48,4,3.85,IN,1700370067
543,bereket,39.2446,55.5154,13.42,54,1,7.44,TM,1700370068
544,cobija,-11.0267,-68.7692,29.82,46,100,1.8,BO,1700370069
545,al kharijah,25.4514,30.5464,17.24,66,0,1.89,EG,1700370070
546,santa terezinha,-29.9002,-50.0904,18.36,85,37,5.57,BR,1700370070
547,tura,25.5198,90.2201,26.23,61,4,0.75,IN,1700370070
548,diplo,24.4667,69.584,26.95,19,0,3.12,PK,1700370071
549,fuente el saz,40.6322,-3.5115,11.49,97,0,1.54,ES,1700370071
550,hasaki,35.7333,140.8333,19.22,41,3,3.36,JP,1700369914
551,verkhnevilyuysk,63.4453,120.3167,-14.4,97,97,1.05,RU,1700370072
552,san luis,-33.295,-66.3356,16.93,35,46,3.39,AR,1700370072
553,saint-joseph,-21.3667,55.6167,24.71,60,0,3.42,RE,1700370073
554,camana,-16.6228,-72.7111,19.02,84,91,3.17,PE,1700370073
555,nyala,12.05,24.8833,21.58,20,100,6.06,SD,1700370025
556,mossel bay,-34.1831,22.146,18.42,71,100,0.92,ZA,1700370074
557,nelidovo,56.2211,32.7774,-7.22,87,98,1.42,RU,1700369910
558,horta,38.5333,-28.6333,14.45,73,56,4.02,PT,1700370074
559,axim,4.8699,-2.2405,25.78,86,26,2.8,GH,1700370074
560,evinayong,1.4368,10.5512,19.73,99,100,0.06,GQ,1700370075
561,vengerovo,55.6848,76.7471,-7.47,82,88,7.24,RU,1700370075
562,nieuw amsterdam,5.8833,-55.0833,26.68,88,2,3.74,SR,1700370075
563,hastings,50.8552,0.5729,13.49,84,23,11.89,GB,1700370076
564,cariamanga,-4.3333,-79.55,12.1,93,100,1.0,EC,1700370076
565,zheshart,62.0731,49.5733,-7.25,92,100,3.43,RU,1700370076
566,riosucio,5.4216,-75.7032,14.45,96,100,0.46,CO,1700370077
567,piedade,-23.7119,-47.4278,21.21,77,97,1.41,BR,1700369950
568,paranhos,-23.8928,-55.4311,20.83,85,91,1.15,BR,1700370078
569,walvis bay,-22.9575,14.5053,17.27,74,0,3.04,NA,1700370078
570,taguatinga,-12.3857,-46.5711,25.39,74,100,0.81,BR,1700370078
571,zouerate,22.7187,-12.4521,19.68,20,0,3.73,MR,1700370079
572,griffith,41.5284,-87.4237,7.16,54,0,2.06,US,1700370079
573,nizhnevartovsk,60.9344,76.5531,-16.99,92,75,4.02,RU,1700370079
574,macapa,0.0389,-51.0664,25.93,87,87,4.3,BR,1700370079
575,belyy yar,53.6039,91.3903,9.94,57,0,7.0,RU,1700370080
576,daru,-9.0763,143.2092,29.08,66,97,4.87,PG,1700370021
577,sosnytsya,51.5239,32.4999,-4.13,73,4,3.12,UA,1700370080
578,nan,18.8333,100.6667,26.57,46,45,0.37,TH,1700370081
579,gogrial,8.5332,28.1004,25.16,72,97,1.54,SS,1700370081
580,timbuktu,16.7735,-3.0074,23.67,18,99,3.92,ML,1700370081
581,road town,18.4167,-64.6167,28.36,79,100,7.97,VG,1700370082
582,lobujya,27.95,86.8167,-0.64,44,0,2.7,NP,1700370082
583,villafranca de los barros,38.5614,-6.3381,13.21,64,2,1.78,ES,1700370082
584,marsh harbour,26.5412,-77.0636,24.72,79,59,5.14,BS,1700370083
585,el porvenir,13.7617,-87.3458,21.63,88,26,2.79,HN,1700370083
586,el matama,16.7095,33.3565,25.12,34,100,3.85,SD,1700370083
587,puerto baquerizo moreno,-0.9,-89.6,22.25,83,15,3.32,EC,1700370083
588,aguilas,37.4063,-1.5829,14.87,79,6,0.98,ES,1700370084
589,olsztyn,53.7799,20.4942,-5.02,86,37,2.73,PL,1700370085
590,leeton,-34.5667,146.4,36.05,12,57,3.71,AU,1700370085
